{
"type": "FeatureCollection",
"name": "Untitled layer",
"crs": { "type": "name", "properties": { "name": "urn:ogc:def:crs:OGC:1.3:CRS84" } },
"features": [
{ "type": "Feature", "properties": { "Name": "Downtown: Columbia Center", "description": "701 5th Ave # 118<br>Seattle, WA 98104<br>(206) 447-9934", "gx_media_links": null }, "geometry": { "type": "Point", "coordinates": [ -122.329856, 47.604418 ] } },
{ "type": "Feature", "properties": { "Name": "Downtown: Pioneer Square", "description": "102 1st Ave S<br>Seattle, WA 98104<br>(206) 382-2656", "gx_media_links": null }, "geometry": { "type": "Point", "coordinates": [ -122.334196, 47.601733 ] } },
{ "type": "Feature", "properties": { "Name": "Downtown: 5th Ave", "description": "505 5th Ave S # 120<br>Seattle, WA 98104<br>(206) 381-8965", "gx_media_links": null }, "geometry": { "type": "Point", "coordinates": [ -122.328228, 47.597614 ] } },
{ "type": "Feature", "properties": { "Name": "Downtown: One Union Square", "description": "600 University St<br>Seattle, WA 98101<br>(206) 343-7199", "gx_media_links": null }, "geometry": { "type": "Point", "coordinates": [ -122.33265, 47.609157 ] } },
{ "type": "Feature", "properties": { "Name": "Downtown: Fourth & Seneca", "description": "1125 4th Ave<br>Seattle, WA 98101<br>(206) 623-0860", "gx_media_links": null }, "geometry": { "type": "Point", "coordinates": [ -122.333739, 47.606944 ] } },
{ "type": "Feature", "properties": { "Name": "Pike Place", "description": "1912 Pike Pl<br>Seattle, WA 98101<br>(206) 448-8762", "gx_media_links": null }, "geometry": { "type": "Point", "coordinates": [ -122.342298, 47.609748 ] } },
{ "type": "Feature", "properties": { "Name": "Metropolitan Park", "description": "1220 Howell St # 100<br>Seattle, WA 98101<br>(206) 262-0278", "gx_media_links": null }, "geometry": { "type": "Point", "coordinates": [ -122.3304, 47.617003 ] } },
{ "type": "Feature", "properties": { "Name": "Downtown: 3rd Ave", "description": "1301 3rd Ave<br>Seattle, WA 98101<br>(206) 621-9627", "gx_media_links": null }, "geometry": { "type": "Point", "coordinates": [ -122.336026, 47.607752 ] } },
{ "type": "Feature", "properties": { "Name": "Downtown: Pine & 7th", "description": "721 Pine St<br>Seattle, WA 98101<br>(206) 264-8921", "gx_media_links": null }, "geometry": { "type": "Point", "coordinates": [ -122.334049, 47.612661 ] } },
{ "type": "Feature", "properties": { "Name": "Downtown: 2nd Ave", "description": "1191 2nd Ave # 130<br>Seattle, WA 98101<br>(206) 652-8496", "gx_media_links": null }, "geometry": { "type": "Point", "coordinates": [ -122.336392, 47.606488 ] } },
{ "type": "Feature", "properties": { "Name": "Downtown: Swedish Medical Center", "description": "1101 Madison St<br>Seattle, WA 98104<br>(206) 624-0281", "gx_media_links": null }, "geometry": { "type": "Point", "coordinates": [ -122.325076, 47.609331 ] } },
{ "type": "Feature", "properties": { "Name": "Downtown: Starbucks Coffee", "description": "211 Lenora St # A<br>Seattle, WA 98121<br>(206) 441-1388", "gx_media_links": null }, "geometry": { "type": "Point", "coordinates": [ -122.342958, 47.612582 ] } },
{ "type": "Feature", "properties": { "Name": "Downtown: Plaza 600 Building", "description": "600 Stewart St # 600<br>Seattle, WA 98101<br>(206) 441-6898", "gx_media_links": null }, "geometry": { "type": "Point", "coordinates": [ -122.337019, 47.613637 ] } },
{ "type": "Feature", "properties": { "Name": "Central District: 23d & Jackson", "description": "2300 S Jackson St<br>Seattle, WA 98144<br>(206) 726-0502", "gx_media_links": null }, "geometry": { "type": "Point", "coordinates": [ -122.302238, 47.599295 ] } },
{ "type": "Feature", "properties": { "Name": "Downtown: Puget Sound Plaza", "description": "1325 4th Ave<br>Seattle, WA 98101<br>(206) 623-5427", "gx_media_links": null }, "geometry": { "type": "Point", "coordinates": [ -122.335118, 47.608437 ] } },
{ "type": "Feature", "properties": { "Name": "Downtown: Madison", "description": "1301 Madison St<br>Seattle, WA 98104<br>(206) 254-1336", "gx_media_links": null }, "geometry": { "type": "Point", "coordinates": [ -122.322916, 47.610271 ] } },
{ "type": "Feature", "properties": { "Name": "Downtown: 4th & Occidental", "description": "400 Occidental Ave S<br>Seattle, WA 98104<br>(206) 624-2561", "gx_media_links": null }, "geometry": { "type": "Point", "coordinates": [ -122.332859, 47.59919 ] } },
{ "type": "Feature", "properties": { "Name": "Belltown(?): 23rd & 1st", "description": "2326 1st Ave<br>Seattle, WA 98121<br>(206) 956-4322", "gx_media_links": null }, "geometry": { "type": "Point", "coordinates": [ -122.347194, 47.613942 ] } },
{ "type": "Feature", "properties": { "Name": "Downtown: Alaskan Way", "description": "2200 Alaskan Way # 120<br>Seattle, WA 98121<br>(206) 448-9304", "gx_media_links": null }, "geometry": { "type": "Point", "coordinates": [ -122.347647, 47.610817 ] } },
{ "type": "Feature", "properties": { "Name": "Central District: 22nd & Madison", "description": "2201 E Madison St<br>Seattle, WA 98112<br>(206) 323-0331", "gx_media_links": null }, "geometry": { "type": "Point", "coordinates": [ -122.303619, 47.618388 ] } },
{ "type": "Feature", "properties": { "Name": "Mt. Baker: 29th & MLK", "description": "2921 Martin Luther King Jr S<br>Seattle, WA 98144<br>(206) 721-1543", "gx_media_links": null }, "geometry": { "type": "Point", "coordinates": [ -122.296324, 47.577108 ] } },
{ "type": "Feature", "properties": { "Name": "S Lake Union: 12th & Dexter", "description": "1211 Dexter Ave N<br>Seattle, WA 98109<br>(206) 283-2211", "gx_media_links": null }, "geometry": { "type": "Point", "coordinates": [ -122.342349, 47.629822 ] } },
{ "type": "Feature", "properties": { "Name": "Capitol Hill: 16th & Olive", "description": "1600 E Olive Way<br>Seattle, WA 98102<br>(206) 568-5185", "gx_media_links": null }, "geometry": { "type": "Point", "coordinates": [ -122.325007, 47.619312 ] } },
{ "type": "Feature", "properties": { "Name": "West Seattle: Alki Ave", "description": "2742 Alki Ave SW, Seattle, WA", "gx_media_links": null }, "geometry": { "type": "Point", "coordinates": [ -122.411012, 47.578978 ] } },
{ "type": "Feature", "properties": { "Name": "Downtown: Seattle Trust", "description": "1000 2nd Ave # 101<br>Seattle, WA 98104<br>(206) 382-1688", "gx_media_links": null }, "geometry": { "type": "Point", "coordinates": [ -122.335097, 47.605175 ] } },
{ "type": "Feature", "properties": { "Name": "Downtown: 2nd Ave", "description": "502 2nd Ave<br>Seattle, WA 98104<br>(206) 381-0638", "gx_media_links": null }, "geometry": { "type": "Point", "coordinates": [ -122.332047, 47.601745 ] } },
{ "type": "Feature", "properties": { "Name": "Downtown: 5th & Pine", "description": "515 Pine St<br>Seattle, WA 98101<br>(206) 382-1201", "gx_media_links": null }, "geometry": { "type": "Point", "coordinates": [ -122.336338, 47.611703 ] } },
{ "type": "Feature", "properties": { "Name": "Downtown: 3rd Ave", "description": "1111 3rd Ave # G<br>Seattle, WA 98101<br>(206) 442-9645", "gx_media_links": null }, "geometry": { "type": "Point", "coordinates": [ -122.334778, 47.6064 ] } },
{ "type": "Feature", "properties": { "Name": "Rainier Valley: Rainier Plaza Shopping Center", "description": "3820 Rainier Ave S # A1<br>Seattle, WA 98118<br>(206) 723-4143", "gx_media_links": null }, "geometry": { "type": "Point", "coordinates": [ -122.290341, 47.569397 ] } },
{ "type": "Feature", "properties": { "Name": "Madison Park: 40th & Madison", "description": "4000 E Madison St<br>Seattle, WA 98112<br>(206) 329-3736", "gx_media_links": null }, "geometry": { "type": "Point", "coordinates": [ -122.28104, 47.633861 ] } },
{ "type": "Feature", "properties": { "Name": "Madrona: Lakeside Ave", "description": "121 Lakeside Ave # F<br>Seattle, WA 98122<br>(206) 720-4803", "gx_media_links": null }, "geometry": { "type": "Point", "coordinates": [ -122.285304, 47.601831 ] } },
{ "type": "Feature", "properties": { "Name": "First Hill: 12th & Columbia", "description": "800 12th Ave, Seattle, WA", "gx_media_links": null }, "geometry": { "type": "Point", "coordinates": [ -122.316759, 47.609211 ] } },
{ "type": "Feature", "properties": { "Name": "Downtown: 5th Ave", "description": "1420 5th Ave # 111<br>Seattle, WA 98101<br>(206) 381-3743", "gx_media_links": null }, "geometry": { "type": "Point", "coordinates": [ -122.334848, 47.609878 ] } },
{ "type": "Feature", "properties": { "Name": "Rainier Valley: 48th & Rainier", "description": "4824 Rainier Ave S<br>Seattle, WA 98118<br>(206) 721-8871", "gx_media_links": null }, "geometry": { "type": "Point", "coordinates": [ -122.285687, 47.559057 ] } },
{ "type": "Feature", "properties": { "Name": "Downtown: Pacific Place", "description": "600 Pike St<br>Seattle, WA 98101<br>(206) 264-1607", "gx_media_links": null }, "geometry": { "type": "Point", "coordinates": [ -122.33452, 47.611148 ] } },
{ "type": "Feature", "properties": { "Name": "Capitol Hill: Broadway", "description": "434 Broadway E<br>Seattle, WA 98102<br>(206) 323-7888", "gx_media_links": null }, "geometry": { "type": "Point", "coordinates": [ -122.320904, 47.622379 ] } },
{ "type": "Feature", "properties": { "Name": "Queen Anne: Queen Anne Ave", "description": "425 Queen Anne Ave N<br>Seattle, WA 98109<br>(206) 691-3396", "gx_media_links": null }, "geometry": { "type": "Point", "coordinates": [ -122.356773, 47.622405 ] } },
{ "type": "Feature", "properties": { "Name": "Downtown: 6th & Denny", "description": "620 Denny Way<br>Seattle, WA 98109<br>(206) 956-0408", "gx_media_links": null }, "geometry": { "type": "Point", "coordinates": [ -122.344776, 47.618557 ] } },
{ "type": "Feature", "properties": { "Name": "Int D: 1st Ave", "description": "1962 1st Ave S<br>Seattle, WA 98134<br>(206) 624-6045", "gx_media_links": null }, "geometry": { "type": "Point", "coordinates": [ -122.334174, 47.58567 ] } },
{ "type": "Feature", "properties": { "Name": "S Lake Union: Westlake Ave", "description": "1200 Westlake Ave N<br>Seattle, WA 98109<br>(206) 216-0306", "gx_media_links": null }, "geometry": { "type": "Point", "coordinates": [ -122.340986, 47.629787 ] } },
{ "type": "Feature", "properties": { "Name": "Wallingford: 45th St", "description": "2110 N 45th St<br>Seattle, WA 98103<br>(206) 548-9507", "gx_media_links": null }, "geometry": { "type": "Point", "coordinates": [ -122.333107, 47.661451 ] } },
{ "type": "Feature", "properties": { "Name": "Georgetown: Corson Ave", "description": "5963 Corson Ave S<br>Seattle, WA 98108<br>(206) 762-4671", "gx_media_links": null }, "geometry": { "type": "Point", "coordinates": [ -122.321156, 47.548492 ] } },
{ "type": "Feature", "properties": { "Name": "Capitol Hill: 15th Ave", "description": "328 15th Ave E<br>Seattle, WA 98112<br>(206) 323-1568", "gx_media_links": null }, "geometry": { "type": "Point", "coordinates": [ -122.312508, 47.621341 ] } },
{ "type": "Feature", "properties": { "Name": "Downtown: 1st Ave", "description": "823 1st Ave S<br>Seattle, WA 98134<br>(206) 340-9184", "gx_media_links": null }, "geometry": { "type": "Point", "coordinates": [ -122.335516, 47.60381 ] } },
{ "type": "Feature", "properties": { "Name": "Downtown: Alaskan Way", "description": "1101 Alaskan Way # 102<br>Seattle, WA 98101<br>(206) 554-7060", "gx_media_links": null }, "geometry": { "type": "Point", "coordinates": [ -122.339126, 47.604478 ] } },
{ "type": "Feature", "properties": { "Name": "Univ D: 45th & University Way", "description": "4555 University Way NE<br>Seattle, WA 98105<br>(206) 634-1390", "gx_media_links": null }, "geometry": { "type": "Point", "coordinates": [ -122.313114, 47.66229 ] } },
{ "type": "Feature", "properties": { "Name": "Downtown: 4th & Blanchard", "description": "2101 4th Ave # 150<br>Seattle, WA 98121<br>(206) 728-0883", "gx_media_links": null }, "geometry": { "type": "Point", "coordinates": [ -122.341378, 47.613796 ] } },
{ "type": "Feature", "properties": { "Name": "Queen Anne: Queen Anne Ave", "description": "2135 Queen Anne Ave N<br>Seattle, WA 98109<br>(206) 301-9477", "gx_media_links": null }, "geometry": { "type": "Point", "coordinates": [ -122.356959, 47.637596 ] } },
{ "type": "Feature", "properties": { "Name": "Downtown: 3rd Ave", "description": "999 3rd Ave<br>Seattle, WA 98104<br>(206) 748-0058", "gx_media_links": null }, "geometry": { "type": "Point", "coordinates": [ -122.33402, 47.605595 ] } },
{ "type": "Feature", "properties": { "Name": "Downtown: Century Square Kiosk", "description": "1501 4th Ave # 107<br>Seattle, WA 98101<br>(206) 625-1255", "gx_media_links": null }, "geometry": { "type": "Point", "coordinates": [ -122.336788, 47.610201 ] } },
{ "type": "Feature", "properties": { "Name": "Ravenna: 64th & 12th", "description": "6417 12th Ave NE<br>Seattle, WA 98115<br>(206) 526-7230", "gx_media_links": null }, "geometry": { "type": "Point", "coordinates": [ -122.315683, 47.675117 ] } },
{ "type": "Feature", "properties": { "Name": "Queen Anne: Elliott Ave", "description": "1144 Elliott Ave W<br>Seattle, WA 98119<br>(206) 283-9629", "gx_media_links": null }, "geometry": { "type": "Point", "coordinates": [ -122.372145, 47.629479 ] } },
{ "type": "Feature", "properties": { "Name": "West Seattle: 41st & Admiral", "description": "4101 SW Admiral Way<br>Seattle, WA 98116<br>(206) 937-5010", "gx_media_links": null }, "geometry": { "type": "Point", "coordinates": [ -122.383912, 47.581174 ] } },
{ "type": "Feature", "properties": { "Name": "Downtown: 7th Ave", "description": "1700 7th Ave # 110<br>Seattle, WA 98101<br>(206) 382-0636", "gx_media_links": null }, "geometry": { "type": "Point", "coordinates": [ -122.335168, 47.613592 ] } },
{ "type": "Feature", "properties": { "Name": "Phinney Ridge: 67th St", "description": "316 N 67th St<br>Seattle, WA 98103<br>(206) 781-4153", "gx_media_links": null }, "geometry": { "type": "Point", "coordinates": [ -122.355032, 47.677839 ] } },
{ "type": "Feature", "properties": { "Name": "Northgate: Northgate Way", "description": "2137 N Northgate Way<br>Seattle, WA 98133<br>(206) 417-1403", "gx_media_links": null }, "geometry": { "type": "Point", "coordinates": [ -122.333012, 47.708654 ] } },
{ "type": "Feature", "properties": { "Name": "Downtown: Seattle Center Kiosk", "description": "305 Harrison St<br>Seattle, WA 98109<br>(206) 728-4077", "gx_media_links": null }, "geometry": { "type": "Point", "coordinates": [ -122.348438, 47.621985 ] } },
{ "type": "Feature", "properties": { "Name": "Queen Anne: Dravus St", "description": "1607 W Dravus St<br>Seattle, WA 98119<br>(206) 285-6230", "gx_media_links": null }, "geometry": { "type": "Point", "coordinates": [ -122.377598, 47.648454 ] } },
{ "type": "Feature", "properties": { "Name": "Downtown: Terry Ave", "description": "2121 Terry Ave # 104<br>Seattle, WA 98121<br>(206) 223-2173", "gx_media_links": null }, "geometry": { "type": "Point", "coordinates": [ -122.336405, 47.617958 ] } },
{ "type": "Feature", "properties": { "Name": "Magnolia: McGraw St", "description": "3300 W Mcgraw St<br>Seattle, WA 98199<br>(206) 298-3390", "gx_media_links": null }, "geometry": { "type": "Point", "coordinates": [ -122.399674, 47.639583 ] } },
{ "type": "Feature", "properties": { "Name": "Univ D: U Village", "description": "2650 Ne 49th St<br>Seattle, WA 98105<br>(206) 522-6410", "gx_media_links": null }, "geometry": { "type": "Point", "coordinates": [ -122.299687, 47.662663 ] } },
{ "type": "Feature", "properties": { "Name": "West Seattle: Fauntleroy", "description": "4408 Fauntleroy Way SW, Seattle, WA", "gx_media_links": null }, "geometry": { "type": "Point", "coordinates": [ -122.377787, 47.563977 ] } },
{ "type": "Feature", "properties": { "Name": "Univ D: 41st & University Way", "description": "<img src=\"https:\/\/lh3.googleusercontent.com\/umsh\/ANkjSgFs8RX9FUrPAj1U1a4Ie4ZDUg8KSH5obnM9QDzjwVZvQ07QLCFd_5-hfTZS5oVWRhgFCZNkn2RZ3EzvyOtw1NcWzNCViw57g6PO4nFPSnGHQlEBtUaqxoSdsxi7f9FAnWZE1zcQv8W85TAWEPHG-vx397EA6g6Nx_oLfDTWo4gLVOpqCtfPLNLga53VnjZH3yutJ72UgmC_RI8jOjYLaJ53oaMb\" height=\"200\" width=\"auto\" \/><br><br>4147 University Way NE<br>Seattle, WA 98105<br>(206) 547-3280<br><br>more info » (http:\/\/maps.google.com\/maps?f=l&hl=en&geocode=&q=starbucks&near=seattle,+wa&sll=47.813155,-122.167969&sspn=2.593279,5.141602&ie=UTF8&latlng=47658226,-122313312,4848090277429758754&ei=VPAQSPGQApHMjQOeiZ3iBA&sig2=_Xv-cgvM1e4qHORXQuKz3A&cd=64)", "gx_media_links": "https:\/\/lh3.googleusercontent.com\/umsh\/ANkjSgFs8RX9FUrPAj1U1a4Ie4ZDUg8KSH5obnM9QDzjwVZvQ07QLCFd_5-hfTZS5oVWRhgFCZNkn2RZ3EzvyOtw1NcWzNCViw57g6PO4nFPSnGHQlEBtUaqxoSdsxi7f9FAnWZE1zcQv8W85TAWEPHG-vx397EA6g6Nx_oLfDTWo4gLVOpqCtfPLNLga53VnjZH3yutJ72UgmC_RI8jOjYLaJ53oaMb" }, "geometry": { "type": "Point", "coordinates": [ -122.313312, 47.658226 ] } },
{ "type": "Feature", "properties": { "Name": "Ballard: 22nd & Market", "description": "<img src=\"https:\/\/lh3.googleusercontent.com\/umsh\/ANkjSgFjymJrmkQdo64moI2qBI-Wwmcw2j0lkd5-Tt4pzn4lG30lPaxZS0lqX3bgCtyRiGubRMe5wtl8zT25OEW3kW7sCYj-F4SKHngLUhYy2o7DdsE4CM3dPuIF0PAGxPAbR8Km44eZEQWl2ej594gFKWi7khdCgALxHWtbR3022ZAvnT6dM8y2xWHgsvfbs2VCA_G-gU0UvNfRRRCs4XmBmx-6qqqygQ\" height=\"200\" width=\"auto\" \/><br><br>2204 NW Market St<br>Seattle, WA 98107<br>(206) 782-2795<br><br>more info » (http:\/\/maps.google.com\/maps?f=l&hl=en&geocode=&q=starbucks&near=seattle,+wa&sll=47.813155,-122.167969&sspn=2.593279,5.141602&ie=UTF8&latlng=47668705,-122384824,14727962492336236921&ei=VPAQSPGQApHMjQOeiZ3iBA&sig2=NgaYDC2HXFVjZ9702bqodw&cd=65)", "gx_media_links": "https:\/\/lh3.googleusercontent.com\/umsh\/ANkjSgFjymJrmkQdo64moI2qBI-Wwmcw2j0lkd5-Tt4pzn4lG30lPaxZS0lqX3bgCtyRiGubRMe5wtl8zT25OEW3kW7sCYj-F4SKHngLUhYy2o7DdsE4CM3dPuIF0PAGxPAbR8Km44eZEQWl2ej594gFKWi7khdCgALxHWtbR3022ZAvnT6dM8y2xWHgsvfbs2VCA_G-gU0UvNfRRRCs4XmBmx-6qqqygQ" }, "geometry": { "type": "Point", "coordinates": [ -122.384824, 47.668705 ] } },
{ "type": "Feature", "properties": { "Name": "Green Lake: 71st & Green Lake", "description": "<img src=\"https:\/\/lh3.googleusercontent.com\/umsh\/ANkjSgGCzNim6x9I9PbrAOkyObBHwGR11a4dlXvLzba68l9hU7vWOFip-Xc2GFxgFTFbQMiH5QNag2HCDgUrLBquaq76HSrLUZghirdjjzASyPggZXMgI77b2mGBmurBTItqsmsjYyxaZXsJa8A_7crGpsUW0yh9_MnTzfpAxBRcw86jX1qQONZrwEX2b3wA8S6IVGIBq_VWH-5bZeZdVw-bI0nH0-GC5w\" height=\"200\" width=\"auto\" \/><br><br>7100 E Green Lake Dr N<br>Seattle, WA 98115<br>(206) 523-9594<br><br>more info » (http:\/\/maps.google.com\/maps?f=l&hl=en&geocode=&q=starbucks&near=seattle,+wa&sll=47.813155,-122.167969&sspn=2.593279,5.141602&ie=UTF8&latlng=47679741,-122325668,6175372452668564101&ei=VPAQSPGQApHMjQOeiZ3iBA&sig2=VQiRO5SfeF1ux3QFCbQpKg&cd=66)", "gx_media_links": "https:\/\/lh3.googleusercontent.com\/umsh\/ANkjSgGCzNim6x9I9PbrAOkyObBHwGR11a4dlXvLzba68l9hU7vWOFip-Xc2GFxgFTFbQMiH5QNag2HCDgUrLBquaq76HSrLUZghirdjjzASyPggZXMgI77b2mGBmurBTItqsmsjYyxaZXsJa8A_7crGpsUW0yh9_MnTzfpAxBRcw86jX1qQONZrwEX2b3wA8S6IVGIBq_VWH-5bZeZdVw-bI0nH0-GC5w" }, "geometry": { "type": "Point", "coordinates": [ -122.325668, 47.679741 ] } },
{ "type": "Feature", "properties": { "Name": "West Seattle: California & Fauntleroy", "description": "6501 California Ave SW<br>Seattle, WA 98136<br>(206) 938-6371<br><br>more info » (http:\/\/maps.google.com\/maps?f=l&hl=en&geocode=&q=starbucks&near=seattle,+wa&sll=47.813155,-122.167969&sspn=2.593279,5.141602&ie=UTF8&latlng=47544688,-122387347,6967553286011807891&ei=VPAQSPGQApHMjQOeiZ3iBA&sig2=UYyAg4MwITd4iPIsLDKruA&cd=67)", "gx_media_links": null }, "geometry": { "type": "Point", "coordinates": [ -122.387347, 47.544688 ] } },
{ "type": "Feature", "properties": { "Name": "Crown Hill: Holman Rd", "description": "9999 Holman Rd NW<br>Seattle, WA 98117<br>(206) 783-8104<br><br>more info » (http:\/\/maps.google.com\/maps?f=l&hl=en&geocode=&q=starbucks&near=seattle,+wa&sll=47.813155,-122.167969&sspn=2.593279,5.141602&ie=UTF8&latlng=47701710,-122362198,4112272570156031299&ei=VPAQSPGQApHMjQOeiZ3iBA&sig2=upBapcsBbtgXgK5LqaDpnQ&cd=68)", "gx_media_links": null }, "geometry": { "type": "Point", "coordinates": [ -122.362198, 47.70171 ] } },
{ "type": "Feature", "properties": { "Name": "Eastlake: 23rd & Eastlake", "description": "<img src=\"https:\/\/lh3.googleusercontent.com\/umsh\/ANkjSgHDf1fWIHffOIhs3LwxO1se5qbj_LdrKGWCuFKqF_g9-aRBUEWfBL2olIbsow81-MWVvKBO7o1cO2ITZ2sNS3st-VND3JnmhoLKcn04fuTlZTQ9KtuMlF62MsCFD1784psk3Pu1utFh-Qtzsl-hbM3D05y_uNzeS5deiKhT5NqtJPVPmZ8OQLIhIZfem4ztdW4AxDyLzx7Wj6PLWzkGxL8D0cOGVA\" height=\"200\" width=\"auto\" \/><br><br>2344 Eastlake Ave E<br>Seattle, WA 98102<br>(206) 324-5144<br><br>more info » (http:\/\/maps.google.com\/maps?f=l&hl=en&geocode=&q=starbucks&near=seattle,+wa&sll=47.813155,-122.167969&sspn=2.593279,5.141602&ie=UTF8&latlng=47640760,-122325871,16282844390205293475&ei=VPAQSPGQApHMjQOeiZ3iBA&sig2=0ZJf9tpCeNSXiSQq1zLkDw&cd=69)", "gx_media_links": "https:\/\/lh3.googleusercontent.com\/umsh\/ANkjSgHDf1fWIHffOIhs3LwxO1se5qbj_LdrKGWCuFKqF_g9-aRBUEWfBL2olIbsow81-MWVvKBO7o1cO2ITZ2sNS3st-VND3JnmhoLKcn04fuTlZTQ9KtuMlF62MsCFD1784psk3Pu1utFh-Qtzsl-hbM3D05y_uNzeS5deiKhT5NqtJPVPmZ8OQLIhIZfem4ztdW4AxDyLzx7Wj6PLWzkGxL8D0cOGVA" }, "geometry": { "type": "Point", "coordinates": [ -122.325871, 47.64076 ] } },
{ "type": "Feature", "properties": { "Name": "Montlake: 38th & Montlake Blvd", "description": "3850 Montlake Blvd NE # 315<br>Seattle, WA 98195<br>(206) 362-3704<br><br>more info » (http:\/\/maps.google.com\/maps?f=l&hl=en&geocode=&q=starbucks&near=seattle,+wa&sll=47.813155,-122.167969&sspn=2.593279,5.141602&ie=UTF8&latlng=47651820,-122303442,5205425143807934009&ei=9vEQSOuPO5icjQPWsa3iBA&sig2=_S5g0EccFxMwEOv5vEmubw&cd=103)", "gx_media_links": null }, "geometry": { "type": "Point", "coordinates": [ -122.303442, 47.65182 ] } },
{ "type": "Feature", "properties": { "Name": "Fremont: 34th & Fremont", "description": "<img src=\"https:\/\/lh3.googleusercontent.com\/umsh\/ANkjSgGmjovy7tALs072sQ3tYydqUuiR4FFoLZiIy-WH7qKp9sXKC2zMTvHixV5k4f19iOeTxW7rNkduauojEjw8DaacYO2q8xkY6fVYvTwlQmsPzbFo2DoxBQABGU2phXcqpmAYQIdsmCCVLnyYOP1jsbKpeF-0pTVd2qvI6SXcuT9rX8x2JktYu13QcjJtLR9y5sEugV0CV-bj6vjuK4NLGRoYx6PV3A\" height=\"200\" width=\"auto\" \/><br><br>3415 Fremont Ave N # B<br>Seattle, WA 98103<br>(206) 633-3706<br><br>more info » (http:\/\/maps.google.com\/maps?f=l&hl=en&geocode=&q=starbucks&near=seattle,+wa&sll=47.813155,-122.167969&sspn=2.593279,5.141602&ie=UTF8&latlng=47649703,-122349819,11964389382671055049&ei=VPAQSPGQApHMjQOeiZ3iBA&sig2=8vBS0zWlVsyfsU9CFlG_5A&cd=70)", "gx_media_links": "https:\/\/lh3.googleusercontent.com\/umsh\/ANkjSgGmjovy7tALs072sQ3tYydqUuiR4FFoLZiIy-WH7qKp9sXKC2zMTvHixV5k4f19iOeTxW7rNkduauojEjw8DaacYO2q8xkY6fVYvTwlQmsPzbFo2DoxBQABGU2phXcqpmAYQIdsmCCVLnyYOP1jsbKpeF-0pTVd2qvI6SXcuT9rX8x2JktYu13QcjJtLR9y5sEugV0CV-bj6vjuK4NLGRoYx6PV3A" }, "geometry": { "type": "Point", "coordinates": [ -122.349819, 47.649703 ] } },
{ "type": "Feature", "properties": { "Name": "Downtown: 6th & Union", "description": "601 Union St # 224B<br>Seattle, WA 98101<br>(206) 264-2534<br><br>more info » (http:\/\/maps.google.com\/maps?f=l&hl=en&geocode=&q=starbucks&near=seattle,+wa&sll=47.813155,-122.167969&sspn=2.593279,5.141602&ie=UTF8&latlng=47610121,-122333576,1063266960108048594&ei=sfAQSMrlBJucjQOVn_XgBA&sig2=fBTla-xE_kTMy97A12Ozyw&cd=71)", "gx_media_links": null }, "geometry": { "type": "Point", "coordinates": [ -122.333576, 47.610121 ] } },
{ "type": "Feature", "properties": { "Name": "West Seattle: 26th & California Ave SW", "description": "2622 California Ave SW<br>Seattle, WA 98116<br>(206) 937-5112<br><br>more info » (http:\/\/maps.google.com\/maps?f=l&hl=en&geocode=&q=starbucks&near=seattle,+wa&sll=47.813155,-122.167969&sspn=2.593279,5.141602&ie=UTF8&latlng=47580756,-122386553,8732126410894904481&ei=sfAQSMrlBJucjQOVn_XgBA&sig2=-OqwZ7qsr6HWhuo40yxF3A&cd=72)", "gx_media_links": null }, "geometry": { "type": "Point", "coordinates": [ -122.386553, 47.580756 ] } },
{ "type": "Feature", "properties": { "Name": "Wedgewood: 73rd & 35th", "description": "7303 35th Ave NE<br>Seattle, WA 98115<br>(206) 517-2877<br><br>more info » (http:\/\/maps.google.com\/maps?f=l&hl=en&geocode=&q=starbucks&near=seattle,+wa&sll=47.813155,-122.167969&sspn=2.593279,5.141602&ie=UTF8&latlng=47681274,-122290455,7493751257976231134&ei=sfAQSMrlBJucjQOVn_XgBA&sig2=gLsdH11g10YUNmdFk3rzvQ&cd=73)", "gx_media_links": null }, "geometry": { "type": "Point", "coordinates": [ -122.290455, 47.681274 ] } },
{ "type": "Feature", "properties": { "Name": "Queen Anne: 11th Ave NW", "description": "4400 11th Ave NW<br>Seattle, WA 98107<br>(206) 789-9322<br><br>more info » (http:\/\/maps.google.com\/maps?f=l&hl=en&geocode=&q=starbucks&near=seattle,+wa&sll=47.813155,-122.167969&sspn=2.593279,5.141602&ie=UTF8&latlng=47660342,-122370751,974510105613718374&ei=sfAQSMrlBJucjQOVn_XgBA&sig2=h5oNSklkNeIGsqEDJ6Uhaw&cd=74)", "gx_media_links": null }, "geometry": { "type": "Point", "coordinates": [ -122.370751, 47.660342 ] } },
{ "type": "Feature", "properties": { "Name": "Rainier Valley", "description": "9162 Rainier Ave S<br>Seattle, WA 98118<br>(206) 494-1120<br><br>more info » (http:\/\/maps.google.com\/maps?f=l&hl=en&geocode=&q=starbucks&near=seattle,+wa&sll=47.813155,-122.167969&sspn=2.593279,5.141602&ie=UTF8&latlng=47520933,-122269973,10924751570324212578&ei=sfAQSMrlBJucjQOVn_XgBA&sig2=UYzKqwM5UPbhq1V7s6B6tQ&cd=75)", "gx_media_links": null }, "geometry": { "type": "Point", "coordinates": [ -122.269973, 47.520933 ] } },
{ "type": "Feature", "properties": { "Name": "Neighborhood?", "description": "9023 25th Ave SW<br>Seattle, WA 98106<br>(206) 937-1732<br><br>more info » (http:\/\/maps.google.com\/maps?f=l&hl=en&geocode=&q=starbucks&near=seattle,+wa&sll=47.813155,-122.167969&sspn=2.593279,5.141602&ie=UTF8&latlng=47522446,-122364591,4889662688671689693&ei=sfAQSMrlBJucjQOVn_XgBA&sig2=TQqzq7-KLmJQAC023XgBvA&cd=76)", "gx_media_links": null }, "geometry": { "type": "Point", "coordinates": [ -122.364591, 47.522446 ] } },
{ "type": "Feature", "properties": { "Name": "Neighborhood?", "description": "<img src=\"https:\/\/lh3.googleusercontent.com\/umsh\/ANkjSgGorappCjCWLYeqTXh6qOhpxUsYCPHgtSx95azyZ_fT7I8cG97-qYv0CN3enpwHrLI6ecKwduOETdk98fHAh_MwkbVlPjsQ-RKnuCGvj-zY1LsnPV38Y-pYHRVmkVkr1jY_yJkbSvgyNqlQn0dc55CaqYAYZCs06hvCZCgRRa0vkZYDpI7F_RQHYc4KRxkvc9Lb5DJNbe5Ibpy3sXd3SIz0OOaV6Q\" height=\"200\" width=\"auto\" \/><br><br>10002 Aurora Ave N # 22<br>Seattle, WA 98133<br>(206) 524-6122<br><br>more info » (http:\/\/maps.google.com\/maps?f=l&hl=en&geocode=&q=starbucks&near=seattle,+wa&sll=47.813155,-122.167969&sspn=2.593279,5.141602&ie=UTF8&latlng=47702356,-122343889,3237759641755618937&ei=sfAQSMrlBJucjQOVn_XgBA&sig2=rgk83jklOApP58UuyeejrQ&cd=77)", "gx_media_links": "https:\/\/lh3.googleusercontent.com\/umsh\/ANkjSgGorappCjCWLYeqTXh6qOhpxUsYCPHgtSx95azyZ_fT7I8cG97-qYv0CN3enpwHrLI6ecKwduOETdk98fHAh_MwkbVlPjsQ-RKnuCGvj-zY1LsnPV38Y-pYHRVmkVkr1jY_yJkbSvgyNqlQn0dc55CaqYAYZCs06hvCZCgRRa0vkZYDpI7F_RQHYc4KRxkvc9Lb5DJNbe5Ibpy3sXd3SIz0OOaV6Q" }, "geometry": { "type": "Point", "coordinates": [ -122.343889, 47.702356 ] } },
{ "type": "Feature", "properties": { "Name": "Lake City: 120th & Lake City Way", "description": "<img src=\"https:\/\/lh3.googleusercontent.com\/umsh\/ANkjSgHeqqkdhz4TXN4iSuMErHPJ751phNh0lGi5VdA5mB2m9LoN4ACHsVbL4CrlbztJZ83XAXAhhUB_7gry50bBZa6ms0_c1ZsQpS84XZTsVsR2U4pAw61tJy_ZjzFiVKdanpRxiK5YJkHWsjdrZvVJ2kw5cKDWLBTPitWz7GBCJW_cWjbMJgEtpN6Y_r3mM8ebyrtGmGSrsEEvSCtxoBYTa06ll1LAMg\" height=\"200\" width=\"auto\" \/><br><br>12001 Lake City Way Ne<br>Seattle, WA 98125<br>(206) 364-2490<br><br>more info » (http:\/\/maps.google.com\/maps?f=l&hl=en&geocode=&q=starbucks&near=seattle,+wa&sll=47.813155,-122.167969&sspn=2.593279,5.141602&ie=UTF8&latlng=47715637,-122297369,18147305788074230439&ei=sfAQSMrlBJucjQOVn_XgBA&sig2=P-urKvTJF0i-StjJN-qgPg&cd=79)", "gx_media_links": "https:\/\/lh3.googleusercontent.com\/umsh\/ANkjSgHeqqkdhz4TXN4iSuMErHPJ751phNh0lGi5VdA5mB2m9LoN4ACHsVbL4CrlbztJZ83XAXAhhUB_7gry50bBZa6ms0_c1ZsQpS84XZTsVsR2U4pAw61tJy_ZjzFiVKdanpRxiK5YJkHWsjdrZvVJ2kw5cKDWLBTPitWz7GBCJW_cWjbMJgEtpN6Y_r3mM8ebyrtGmGSrsEEvSCtxoBYTa06ll1LAMg" }, "geometry": { "type": "Point", "coordinates": [ -122.297369, 47.715637 ] } },
{ "type": "Feature", "properties": { "Name": "Northgate: Northgate Mall", "description": "<img src=\"https:\/\/lh3.googleusercontent.com\/umsh\/ANkjSgFf3djKqg_TdkegKnQtOSJmof0FHNtx3HKE0ESAc2DkNdZrr-x8xM_51CqYVU1U9z7ivJmelOP27RgUGrDjCRFz-I-Emytfydxu8oFWZ2CZlhZ8BHUJ0fwLXznkeSqrE1SMjkQTEIHRwc234rlwhMCMbxJGwIoW3rMX-fTvcXuVN_tZx_TAfoPf7m6aW3Wn2JNj1TR-q-tY7bzdouFFzCJwLtkFmQ\" height=\"200\" width=\"auto\" \/><br><br>301 NE Northgate Way # 550<br>Seattle, WA 98125<br>(206) 306-8525<br><br>more info » (http:\/\/maps.google.com\/maps?f=l&hl=en&geocode=&q=starbucks&near=seattle,+wa&sll=47.813155,-122.167969&sspn=2.593279,5.141602&ie=UTF8&latlng=47708584,-122325957,12594983505175878995&ei=sfAQSMrlBJucjQOVn_XgBA&sig2=W2cmx2iWOaFu6R8R4TMcbQ&cd=80)", "gx_media_links": "https:\/\/lh3.googleusercontent.com\/umsh\/ANkjSgFf3djKqg_TdkegKnQtOSJmof0FHNtx3HKE0ESAc2DkNdZrr-x8xM_51CqYVU1U9z7ivJmelOP27RgUGrDjCRFz-I-Emytfydxu8oFWZ2CZlhZ8BHUJ0fwLXznkeSqrE1SMjkQTEIHRwc234rlwhMCMbxJGwIoW3rMX-fTvcXuVN_tZx_TAfoPf7m6aW3Wn2JNj1TR-q-tY7bzdouFFzCJwLtkFmQ" }, "geometry": { "type": "Point", "coordinates": [ -122.325957, 47.708584 ] } },
{ "type": "Feature", "properties": { "Name": "Northgate: Northgate Way", "description": "<img src=\"https:\/\/lh3.googleusercontent.com\/umsh\/ANkjSgFKmnQ36_xp-HsTeLZm_8vNWL4ZEVxFn6YcyHINJVidLtP-uUUMZFanZh_uuXA2N6UY-ZP1S-zXoppESKcRCZS4le-fdPIKjVkRRqfMAm0z7nQcqcHmuBYC-n_jcGd5QA0IOLsCgrHPCEgN37axg89os_hD434dh9LTroAJUCc3_QegyZHK2n_5tS0AoKrnL-bsDIOlSiaKcjFY9pl7Xo65Kyo1cA\" height=\"200\" width=\"auto\" \/><br><br>540 NE Northgate Way # A<br>Seattle, WA 98125<br>(206) 367-6651<br><br>more info » (http:\/\/maps.google.com\/maps?f=l&hl=en&geocode=&q=starbucks&near=seattle,+wa&sll=47.813155,-122.167969&sspn=2.593279,5.141602&ie=UTF8&latlng=47708605,-122322133,9564681535854500492&ei=E_EQSOCAMZ2cjQO7of3gBA&sig2=k62HhjpPHPwpgdOOv2JN8w&cd=81)", "gx_media_links": "https:\/\/lh3.googleusercontent.com\/umsh\/ANkjSgFKmnQ36_xp-HsTeLZm_8vNWL4ZEVxFn6YcyHINJVidLtP-uUUMZFanZh_uuXA2N6UY-ZP1S-zXoppESKcRCZS4le-fdPIKjVkRRqfMAm0z7nQcqcHmuBYC-n_jcGd5QA0IOLsCgrHPCEgN37axg89os_hD434dh9LTroAJUCc3_QegyZHK2n_5tS0AoKrnL-bsDIOlSiaKcjFY9pl7Xo65Kyo1cA" }, "geometry": { "type": "Point", "coordinates": [ -122.322133, 47.708605 ] } },
{ "type": "Feature", "properties": { "Name": "Downtown: King St", "description": "83 S King St<br>Seattle, WA 98104<br>(206) 342-6400<br><br>more info » (http:\/\/maps.google.com\/maps?f=l&hl=en&geocode=&q=starbucks&near=seattle,+wa&sll=47.813155,-122.167969&sspn=2.593279,5.141602&ie=UTF8&latlng=47598288,-122334435,11484166555636305965&ei=E_EQSOCAMZ2cjQO7of3gBA&sig2=KSjsgJcJcht_5VZm-o9j7A&cd=82)", "gx_media_links": null }, "geometry": { "type": "Point", "coordinates": [ -122.334435, 47.598288 ] } },
{ "type": "Feature", "properties": { "Name": "Capitol Hill: 14th & Broadway", "description": "<img src=\"https:\/\/lh3.googleusercontent.com\/umsh\/ANkjSgGNiTYeHlP9CK2Jio5H32ponnCzf83LzvnRwvyBuUV6wURcCAZGh-aP3DjQCvMc0vhq0hXbG0JNt0ImMqPY5Yd1-kNyeWeraFfLuws4xGJRq8PBEsN2hzsXp1yvgaNYTBhjkdFJtdiF0V4GYUA0bWnXVe6_l45mGz7OyaExEFMjIKl-Ay0RP4lHZd0DsKumJyjP-r7NwHoemhw_uNCfNHkiQPAy_A\" height=\"200\" width=\"auto\" \/><br><br>1401 Broadway<br>Seattle, WA 98122<br>(206) 860-3818<br><br>more info » (http:\/\/maps.google.com\/maps?f=l&hl=en&geocode=&q=starbucks&near=seattle,+wa&sll=47.813155,-122.167969&sspn=2.593279,5.141602&ie=UTF8&latlng=47612990,-122320823,13286092966860024416&ei=E_EQSOCAMZ2cjQO7of3gBA&sig2=a9xlE03MK0IsT4mAyAAkiw&cd=84)", "gx_media_links": "https:\/\/lh3.googleusercontent.com\/umsh\/ANkjSgGNiTYeHlP9CK2Jio5H32ponnCzf83LzvnRwvyBuUV6wURcCAZGh-aP3DjQCvMc0vhq0hXbG0JNt0ImMqPY5Yd1-kNyeWeraFfLuws4xGJRq8PBEsN2hzsXp1yvgaNYTBhjkdFJtdiF0V4GYUA0bWnXVe6_l45mGz7OyaExEFMjIKl-Ay0RP4lHZd0DsKumJyjP-r7NwHoemhw_uNCfNHkiQPAy_A" }, "geometry": { "type": "Point", "coordinates": [ -122.320823, 47.61299 ] } },
{ "type": "Feature", "properties": { "Name": "Ballard: NW Market St", "description": "<img src=\"https:\/\/lh3.googleusercontent.com\/umsh\/ANkjSgH9I7m0rw912jbURYU4DMvM4kr6U4zfKTfApvNPu_4pAioopypSrgD94LqVAbkMexHWP0q0HD6go2r35Xrfso75E0rToG29YtBKrNyGyC2KvoVMNB-6Lrb5C5gFW8XvUA92OIGn0t86O6O4BBP_VGZAf1mO99-8EHt3kA41u2OtAA9EbIcWY97Ww6nuBcBwYlWwEuY4BMS9ozzwpZ7_MvA3qC4hVQ\" height=\"200\" width=\"auto\" \/><br><br>1423 NW Market St<br>Seattle, WA 98107<br>(206) 784-6480<br><br>more info » (http:\/\/maps.google.com\/maps?f=l&hl=en&geocode=&q=starbucks&near=seattle,+wa&sll=47.813155,-122.167969&sspn=2.593279,5.141602&ie=UTF8&latlng=47668648,-122374269,15028632850963708357&ei=E_EQSOCAMZ2cjQO7of3gBA&sig2=9dzWNXmqnEdQYLzO_22c3A&cd=85)", "gx_media_links": "https:\/\/lh3.googleusercontent.com\/umsh\/ANkjSgH9I7m0rw912jbURYU4DMvM4kr6U4zfKTfApvNPu_4pAioopypSrgD94LqVAbkMexHWP0q0HD6go2r35Xrfso75E0rToG29YtBKrNyGyC2KvoVMNB-6Lrb5C5gFW8XvUA92OIGn0t86O6O4BBP_VGZAf1mO99-8EHt3kA41u2OtAA9EbIcWY97Ww6nuBcBwYlWwEuY4BMS9ozzwpZ7_MvA3qC4hVQ" }, "geometry": { "type": "Point", "coordinates": [ -122.374269, 47.668648 ] } },
{ "type": "Feature", "properties": { "Name": "Central District: James Tower", "description": "550 17th Ave # 190<br>Seattle, WA 98122<br>(206) 325-6750<br><br>more info » (http:\/\/maps.google.com\/maps?f=l&hl=en&geocode=&q=starbucks&near=seattle,+wa&sll=47.813155,-122.167969&sspn=2.593279,5.141602&ie=UTF8&latlng=47606527,-122310214,2485574488405514640&ei=E_EQSOCAMZ2cjQO7of3gBA&sig2=vSeVROpnveZL3oPvGRo8bQ&cd=86)", "gx_media_links": null }, "geometry": { "type": "Point", "coordinates": [ -122.310214, 47.606527 ] } },
{ "type": "Feature", "properties": { "Name": "Capitol Hill: 14th & John", "description": "1410 E John St<br>Seattle, WA 98112<br>(206) 323-4988<br><br>more info » (http:\/\/maps.google.com\/maps?f=l&hl=en&geocode=&q=starbucks&near=seattle,+wa&sll=47.813155,-122.167969&sspn=2.593279,5.141602&ie=UTF8&latlng=47619955,-122313805,2293065116686324403&ei=E_EQSOCAMZ2cjQO7of3gBA&sig2=vPba51ticzlgFg5O3Fgkwg&cd=88)", "gx_media_links": null }, "geometry": { "type": "Point", "coordinates": [ -122.313805, 47.619955 ] } },
{ "type": "Feature", "properties": { "Name": "Haller Lake: 130th & Aurora", "description": "<img src=\"https:\/\/lh3.googleusercontent.com\/umsh\/ANkjSgHiy5CdhsNoqNLT6aSgRnH4s1cgMFreeauGQbx5afmxc6x-EmZasdQvl8LQdVDh7r2tFm5Hn4rWdQKb-Ctvy2tKsHpViWTqz5leS-pomOWutAs1wW4Ii9BsXUXCAgVlmxI6esypallmaeS1VEUdThW41JqBwbgD_g1dlQEEtTLwhho_PsX0f4e2mmlEc3EXjJ-F09Jzmw38fQmeeZr-rr0tPkFReA\" height=\"200\" width=\"auto\" \/><br><br>13035 Aurora Ave N<br>Seattle, WA 98133<br>(206) 368-9366<br><br>more info » (http:\/\/maps.google.com\/maps?f=l&hl=en&geocode=&q=starbucks&near=seattle,+wa&sll=47.813155,-122.167969&sspn=2.593279,5.141602&ie=UTF8&latlng=47723473,-122345047,8205300027287837924&ei=E_EQSOCAMZ2cjQO7of3gBA&sig2=rxFMXqOt-Gfhqnu-curNIw&cd=89)", "gx_media_links": "https:\/\/lh3.googleusercontent.com\/umsh\/ANkjSgHiy5CdhsNoqNLT6aSgRnH4s1cgMFreeauGQbx5afmxc6x-EmZasdQvl8LQdVDh7r2tFm5Hn4rWdQKb-Ctvy2tKsHpViWTqz5leS-pomOWutAs1wW4Ii9BsXUXCAgVlmxI6esypallmaeS1VEUdThW41JqBwbgD_g1dlQEEtTLwhho_PsX0f4e2mmlEc3EXjJ-F09Jzmw38fQmeeZr-rr0tPkFReA" }, "geometry": { "type": "Point", "coordinates": [ -122.345047, 47.723473 ] } },
{ "type": "Feature", "properties": { "Name": "Crown Hill: 15th Ave NW", "description": "8340 15th Ave NW<br>Seattle, WA 98117<br>(206) 782-7464<br><br>more info » (http:\/\/maps.google.com\/maps?f=l&hl=en&geocode=&q=starbucks&near=seattle,+wa&sll=47.813155,-122.167969&sspn=2.593279,5.141602&ie=UTF8&latlng=47689497,-122376758,16368780153709171819&ei=E_EQSOCAMZ2cjQO7of3gBA&sig2=B6c_lEZz5SHeNeMj77yhLg&cd=90)", "gx_media_links": null }, "geometry": { "type": "Point", "coordinates": [ -122.376758, 47.689497 ] } },
{ "type": "Feature", "properties": { "Name": "Queen Anne: 1st Ave W", "description": "516 1st Ave W<br>Seattle, WA 98119<br>(206) 494-1685<br><br>more info » (http:\/\/maps.google.com\/maps?f=l&hl=en&geocode=&q=starbucks&near=seattle,+wa&sll=47.813155,-122.167969&sspn=2.593279,5.141602&ie=UTF8&latlng=47623512,-122358017,3988247793296848404&ei=ZfEQSJO6HqiKiAP-16jiBA&sig2=OZU7qz7bvHNg1QmmXZNafg&cd=91)", "gx_media_links": null }, "geometry": { "type": "Point", "coordinates": [ -122.358017, 47.623512 ] } },
{ "type": "Feature", "properties": { "Name": "Mt. Baker: 27th & Rainier", "description": "2707 Rainier Ave S<br>Seattle, WA 98144<br>(206) 725-2418", "gx_media_links": null }, "geometry": { "type": "Point", "coordinates": [ -122.29882, 47.579161 ] } },
{ "type": "Feature", "properties": { "Name": "Neighborhood?", "description": "<img src=\"https:\/\/lh3.googleusercontent.com\/umsh\/ANkjSgH9WN8SwC1ma_-XmJJn3YjdslKvZA7gCY8EuUrSIUmuBx74kLHHuUVodgxqsHcODM7zJ-KiNRnctHTd0fAJaK0xEBTlTo4uFgvtNQJTWTBpk3H9d3PJsSMRmb1bLkgT3wqXjvcKu671r7E9w97wtpO8JCg8MBqWdNsnYQucmfiQJ-nxhTWhRhve_rDILFcJfDex8Bol3hNVNChnM0st1aNHnibR\" height=\"200\" width=\"auto\" \/><br><br>14359 15th Ave NE # A<br>Seattle, WA 98125<br>(206) 366-2707<br><br>more info » (http:\/\/maps.google.com\/maps?f=l&hl=en&geocode=&q=starbucks&near=seattle,+wa&sll=47.813155,-122.167969&sspn=2.593279,5.141602&ie=UTF8&latlng=47733198,-122312769,10766913304475686293&ei=ZfEQSJO6HqiKiAP-16jiBA&sig2=oCnLV-KCNJh8dJUJQbFYMg&cd=93)", "gx_media_links": "https:\/\/lh3.googleusercontent.com\/umsh\/ANkjSgH9WN8SwC1ma_-XmJJn3YjdslKvZA7gCY8EuUrSIUmuBx74kLHHuUVodgxqsHcODM7zJ-KiNRnctHTd0fAJaK0xEBTlTo4uFgvtNQJTWTBpk3H9d3PJsSMRmb1bLkgT3wqXjvcKu671r7E9w97wtpO8JCg8MBqWdNsnYQucmfiQJ-nxhTWhRhve_rDILFcJfDex8Bol3hNVNChnM0st1aNHnibR" }, "geometry": { "type": "Point", "coordinates": [ -122.312769, 47.733198 ] } },
{ "type": "Feature", "properties": { "Name": "Fremont: NW 45th St", "description": "915 NW 45th St<br>Seattle, WA 98107<br>(206) 789-9322<br><br>more info » (http:\/\/maps.google.com\/maps?f=l&hl=en&geocode=&q=starbucks&near=seattle,+wa&sll=47.813155,-122.167969&sspn=2.593279,5.141602&ie=UTF8&latlng=47661467,-122368917,4392236070643306410&ei=ZfEQSJO6HqiKiAP-16jiBA&sig2=Qzek0kXRmxP0wzQS-ub3GQ&cd=94)", "gx_media_links": null }, "geometry": { "type": "Point", "coordinates": [ -122.368917, 47.661467 ] } },
{ "type": "Feature", "properties": { "Name": "Harbor Island: SW Klickitat", "description": "<img src=\"https:\/\/lh3.googleusercontent.com\/umsh\/ANkjSgGUseDNZSBrXP8XymQ4Yn-NreVsi7iUm0aiHwl76VI4mR0lH0Y4056AHGWeFUdWkQX_2kBETWvViFt4Sk7x6_7Z666qud46QhRHGJnb0U2Z2AXHzgDokvhmHgZP1XyCJsxC_-kLF7wg8jEp2TLRrukoeOvhdoS4SKdCGEvnkb30Za6JT45IF0_qMZl-C_ylhvmMMPLhAV6ovDjaeVLE-xiKOEJR\" height=\"200\" width=\"auto\" \/><br><br>1021 SW Klickitat Way<br>Seattle, WA 98134<br>(206) 903-6929<br><br>more info » (http:\/\/maps.google.com\/maps?f=l&hl=en&geocode=&q=starbucks&near=seattle,+wa&sll=47.813155,-122.167969&sspn=2.593279,5.141602&ie=UTF8&latlng=47570571,-122347669,6077796034938494191&ei=ZfEQSJO6HqiKiAP-16jiBA&sig2=EldzLr3hpOZPbFdcMRZBxA&cd=96)", "gx_media_links": "https:\/\/lh3.googleusercontent.com\/umsh\/ANkjSgGUseDNZSBrXP8XymQ4Yn-NreVsi7iUm0aiHwl76VI4mR0lH0Y4056AHGWeFUdWkQX_2kBETWvViFt4Sk7x6_7Z666qud46QhRHGJnb0U2Z2AXHzgDokvhmHgZP1XyCJsxC_-kLF7wg8jEp2TLRrukoeOvhdoS4SKdCGEvnkb30Za6JT45IF0_qMZl-C_ylhvmMMPLhAV6ovDjaeVLE-xiKOEJR" }, "geometry": { "type": "Point", "coordinates": [ -122.347669, 47.570571 ] } },
{ "type": "Feature", "properties": { "Name": "Arbor Heights: 28th Ave SW", "description": "9620 28th Ave SW<br>Seattle, WA 98126<br>(206) 935-3996<br><br>more info » (http:\/\/maps.google.com\/maps?f=l&hl=en&geocode=&q=starbucks&near=seattle,+wa&sll=47.813155,-122.167969&sspn=2.593279,5.141602&ie=UTF8&latlng=47517261,-122368603,15860124383133510941&ei=9vEQSOuPO5icjQPWsa3iBA&sig2=b_7QU8OzE61Rjtjy3it2Qw&cd=102)", "gx_media_links": null }, "geometry": { "type": "Point", "coordinates": [ -122.368603, 47.517261 ] } },
{ "type": "Feature", "properties": { "Name": "West Seattle: 42nd Ave SW", "description": "4704 42nd Ave SW<br>Seattle, WA 98116<br>(206) 938-6097<br><br>more info » (http:\/\/maps.google.com\/maps?f=l&hl=en&geocode=&q=starbucks&near=seattle,+wa&sll=47.813155,-122.167969&sspn=2.593279,5.141602&ie=UTF8&latlng=47560982,-122385461,8748444685008662266&ei=9vEQSOuPO5icjQPWsa3iBA&sig2=elDA87i9VSp3EhhSlAKdFg&cd=105)", "gx_media_links": null }, "geometry": { "type": "Point", "coordinates": [ -122.385461, 47.560982 ] } },
{ "type": "Feature", "properties": { "Name": "Wallingford: 12th & 45th", "description": "1218 N 45th St<br>Seattle, WA 98103<br>(206) 545-6945<br><br>more info » (http:\/\/maps.google.com\/maps?f=l&hl=en&geocode=&q=starbucks&near=seattle,+wa&sll=47.813155,-122.167969&sspn=2.593279,5.141602&ie=UTF8&latlng=47661468,-122343206,2085408102524219642&ei=9vEQSOuPO5icjQPWsa3iBA&sig2=vUcOsXtHO9frGE2tUgbcFg&cd=107)", "gx_media_links": null }, "geometry": { "type": "Point", "coordinates": [ -122.343206, 47.661468 ] } },
{ "type": "Feature", "properties": { "Name": "Lake City: 143rd & Lake City Way", "description": "<img src=\"https:\/\/lh3.googleusercontent.com\/umsh\/ANkjSgHBGLX1QnbSCAi24-0uDZCkYmpW1YcysKF60XFoN4O2j0YcW1dReRo-qlh13634w84yqGeOiwJThwz5Q01MUN9eZW1oHwB6_pbH0Lnprl4UFNuFAdY3c20UnunXgDxK7zfJTTTO1-wPJ59SAE0VREpe-iluNQVNKVoKlgDvtVoZdmKmOIxc7x3erVWTdYzSKt_uFGenmD1aRvjQJj-taxibjyS1hQ\" height=\"200\" width=\"auto\" \/><br><br>14330 Lake City Way Ne<br>Seattle, WA 98125<br>(206) 440-3366<br><br>more info » (http:\/\/maps.google.com\/maps?f=l&hl=en&geocode=&q=starbucks&near=seattle,+wa&sll=47.813155,-122.167969&sspn=2.593279,5.141602&ie=UTF8&latlng=47732502,-122292402,16250132359240035060&ei=9vEQSOuPO5icjQPWsa3iBA&sig2=SB58MA6s8f-owsvBHcwuhg&cd=108)", "gx_media_links": "https:\/\/lh3.googleusercontent.com\/umsh\/ANkjSgHBGLX1QnbSCAi24-0uDZCkYmpW1YcysKF60XFoN4O2j0YcW1dReRo-qlh13634w84yqGeOiwJThwz5Q01MUN9eZW1oHwB6_pbH0Lnprl4UFNuFAdY3c20UnunXgDxK7zfJTTTO1-wPJ59SAE0VREpe-iluNQVNKVoKlgDvtVoZdmKmOIxc7x3erVWTdYzSKt_uFGenmD1aRvjQJj-taxibjyS1hQ" }, "geometry": { "type": "Point", "coordinates": [ -122.292402, 47.732502 ] } },
{ "type": "Feature", "properties": { "Name": "Neighborhood?", "description": "2500 SW Barton<br>Seattle, WA 98126<br>(206) 935-0585<br><br>more info » (http:\/\/maps.google.com\/maps?f=l&hl=en&geocode=&q=starbucks&near=seattle,+wa&sll=47.813155,-122.167969&sspn=2.593279,5.141602&ie=UTF8&latlng=47521045,-122364553,335922032940049225&ei=9vEQSOuPO5icjQPWsa3iBA&sig2=Zl-LnvVVjc8Um_-vESRH9Q&cd=110)", "gx_media_links": null }, "geometry": { "type": "Point", "coordinates": [ -122.364553, 47.521045 ] } },
{ "type": "Feature", "properties": { "Name": "Neighborhood?", "description": "2600 SW Barton St # B2<br>Seattle, WA 98126<br>(206) 935-0585<br><br>more info » (http:\/\/maps.google.com\/maps?f=l&hl=en&geocode=&q=starbucks&near=seattle,+wa&sll=47.813155,-122.167969&sspn=2.593279,5.141602&ie=UTF8&latlng=47521055,-122365902,14696656476427210438&ei=NvIQSOuJDJucjQOXn_XgBA&sig2=6bpBJPDUzoozb8l-RJVcjA&cd=111)", "gx_media_links": null }, "geometry": { "type": "Point", "coordinates": [ -122.365902, 47.521055 ] } },
{ "type": "Feature", "properties": { "Name": "Greenwood: 87th & Greenwood", "description": "8704 Greenwood Ave N<br>Seattle, WA 98103<br>(206) 494-0433<br><br>more info » (http:\/\/maps.google.com\/maps?f=l&hl=en&geocode=&q=starbucks&near=seattle,+wa&sll=47.813155,-122.167969&sspn=2.593279,5.141602&ie=UTF8&latlng=47692529,-122355288,12993129034943107372&ei=NvIQSOuJDJucjQOXn_XgBA&sig2=e9CQjLeLKpBduo8XcM0y4w&cd=112)", "gx_media_links": null }, "geometry": { "type": "Point", "coordinates": [ -122.355288, 47.692529 ] } },
{ "type": "Feature", "properties": { "Name": "Neighborhood?", "description": "11100 Roosevelt Way NE<br>Seattle, WA 98125<br>(206) 361-4849<br><br>more info » (http:\/\/maps.google.com\/maps?f=l&hl=en&geocode=&q=starbucks&near=seattle,+wa&sll=47.813155,-122.167969&sspn=2.593279,5.141602&ie=UTF8&latlng=47709370,-122317827,3083927539804181126&ei=NvIQSOuJDJucjQOXn_XgBA&sig2=9k18v6P_L3pR2xOrF75M2A&cd=117)", "gx_media_links": null }, "geometry": { "type": "Point", "coordinates": [ -122.317827, 47.70937 ] } },
{ "type": "Feature", "properties": { "Name": "Univ D: University Village", "description": "4634 26th Ave NE<br>Seattle, WA 98105<br>(206) 522-5228<br><br>more info » (http:\/\/maps.google.com\/maps?f=l&hl=en&geocode=&q=starbucks&near=seattle,+wa&sll=47.813155,-122.167969&sspn=2.593279,5.141602&ie=UTF8&latlng=47669245,-122299550,5739615751003761641&ei=ZvIQSNqBFKKcjQPblf3gBA&sig2=10imm4hnJnVe8T9wpnfVjw&cd=123)", "gx_media_links": null }, "geometry": { "type": "Point", "coordinates": [ -122.29955, 47.669245 ] } },
{ "type": "Feature", "properties": { "Name": "Int Dist: 24th & Utah", "description": "<img src=\"https:\/\/lh3.googleusercontent.com\/umsh\/ANkjSgEDI3LiqasXLpHx6ZbuVuJ69rBr4eF-qv9TiqlrwoEtuZ-vhBAGfdltJ0s8PWOtMdaBWL6EFglYGs0tHOKXyDRXahoOBMarYZu_ooc2FGMHMdqu_t2RM5FRlT6cT3rDD7L_a9DpIciGh6gDVO6O9zYZp9tWByODGlYsMBonBmlv6VyMTudm_15rO7iK90-41XEIS5mmORCLpNOrEglqTSLX6bijDg\" height=\"200\" width=\"auto\" \/><br><br>2401 Utah Ave S # 800<br>Seattle, WA 98134<br>(206) 447-1575<br><br>more info » (http:\/\/maps.google.com\/maps?f=l&hl=en&geocode=&q=starbucks&near=seattle,+wa&sll=47.813155,-122.167969&sspn=2.593279,5.141602&ie=UTF8&latlng=47581893,-122335134,1104778525787152475&ei=ZvIQSNqBFKKcjQPblf3gBA&sig2=QcxV-wi06NffNQhwcI10HA&cd=124)", "gx_media_links": "https:\/\/lh3.googleusercontent.com\/umsh\/ANkjSgEDI3LiqasXLpHx6ZbuVuJ69rBr4eF-qv9TiqlrwoEtuZ-vhBAGfdltJ0s8PWOtMdaBWL6EFglYGs0tHOKXyDRXahoOBMarYZu_ooc2FGMHMdqu_t2RM5FRlT6cT3rDD7L_a9DpIciGh6gDVO6O9zYZp9tWByODGlYsMBonBmlv6VyMTudm_15rO7iK90-41XEIS5mmORCLpNOrEglqTSLX6bijDg" }, "geometry": { "type": "Point", "coordinates": [ -122.335134, 47.581893 ] } },
{ "type": "Feature", "properties": { "Name": "Downtown: 5th St", "description": "701 5th St<br>Seattle, WA 98104<br>(206) 264-0152<br><br>more info » (http:\/\/maps.google.com\/maps?f=l&hl=en&geocode=&q=starbucks&near=seattle,+wa&sll=47.813155,-122.167969&sspn=2.593279,5.141602&ie=UTF8&latlng=47604418,-122329856,3176021234384802009&ei=ZvIQSNqBFKKcjQPblf3gBA&sig2=Y-6e9i2jXqsAT8LJely8jQ&cd=128)", "gx_media_links": null }, "geometry": { "type": "Point", "coordinates": [ -122.329856, 47.604418 ] } },
{ "type": "Feature", "properties": { "Name": "Downtown: Us Bank Centre Store", "description": "1420 5th Ave<br>Seattle, WA 98101<br>(206) 467-0972<br><br>more info » (http:\/\/maps.google.com\/maps?f=l&hl=en&geocode=&q=starbucks&near=seattle,+wa&sll=47.813155,-122.167969&sspn=2.593279,5.141602&ie=UTF8&latlng=47609878,-122334848,16951141056295339075&ei=ZvIQSNqBFKKcjQPblf3gBA&sig2=kJEtonkMBKeTtfI9MuEbpA&cd=129)", "gx_media_links": null }, "geometry": { "type": "Point", "coordinates": [ -122.334848, 47.609878 ] } },
{ "type": "Feature", "properties": { "Name": "Downtown: Us Bank Centre Kiosk", "description": "1420 5th Ave<br>Seattle, WA 98101<br>(206) 625-9380<br><br>more info » (http:\/\/maps.google.com\/maps?f=l&hl=en&geocode=&q=starbucks&near=seattle,+wa&sll=47.813155,-122.167969&sspn=2.593279,5.141602&ie=UTF8&latlng=47609878,-122334848,15805808167610119709&ei=vfIQSLu2F52cjQO4of3gBA&sig2=CB6vFlsx-qnDgTnqlVrVYA&cd=131)", "gx_media_links": null }, "geometry": { "type": "Point", "coordinates": [ -122.334848, 47.609878 ] } },
{ "type": "Feature", "properties": { "Name": "Downtown: Jackson", "description": "# 2300S<br>23 S Jackson St, Seattle, WA 98104<br>(206) 726-0502<br><br>more info » (http:\/\/maps.google.com\/maps?f=l&hl=en&geocode=&q=starbucks&near=seattle,+wa&sll=47.813155,-122.167969&sspn=2.593279,5.141602&ie=UTF8&latlng=47599186,-122335263,8303112277188100579&ei=vfIQSLu2F52cjQO4of3gBA&sig2=Xb3GoeKjG1-dwozjUKuaww&cd=134)", "gx_media_links": null }, "geometry": { "type": "Point", "coordinates": [ -122.335263, 47.599186 ] } },
{ "type": "Feature", "properties": { "Name": "Downtown: 1st & Marion", "description": "<img src=\"https:\/\/lh3.googleusercontent.com\/umsh\/ANkjSgHjUMb5oGblqpw_Ykf0s98vBtjrEOPKXj8Uqu-pfWL9_bO04NZSn3oLdpragLJZ-LYc0_Ptdt5GkFlmlrxU7XxXnzyd8hfMIY0RO1x8bNe3EDavlNF5eKZ2_wcoLsPiaxhw8Lmh0X3KZ1ioHVvRQL0\" height=\"200\" width=\"auto\" \/><br><br>114 Alaskan Way South<br>Seattle, WA 98101<br>(888) 888-2301<br><br>more info » (http:\/\/maps.google.com\/maps?f=l&hl=en&geocode=&q=starbucks&near=seattle,+wa&sll=47.813155,-122.167969&sspn=2.593279,5.141602&ie=UTF8&latlng=47601586,-122336046,6086374780403664688&ei=vfIQSLu2F52cjQO4of3gBA&sig2=aaJBFkACSaVqXlwv7h8qmg&cd=137)", "gx_media_links": "https:\/\/lh3.googleusercontent.com\/umsh\/ANkjSgHjUMb5oGblqpw_Ykf0s98vBtjrEOPKXj8Uqu-pfWL9_bO04NZSn3oLdpragLJZ-LYc0_Ptdt5GkFlmlrxU7XxXnzyd8hfMIY0RO1x8bNe3EDavlNF5eKZ2_wcoLsPiaxhw8Lmh0X3KZ1ioHVvRQL0" }, "geometry": { "type": "Point", "coordinates": [ -122.336046, 47.601586 ] } },
{ "type": "Feature", "properties": { "Name": "Queen Anne: Seattle Trust", "description": "1000 2 Avenue 120 N<br>Seattle, WA 98101<br>(206) 382-1688<br><br>more info » (http:\/\/maps.google.com\/maps?f=l&hl=en&geocode=&q=starbucks&near=seattle,+wa&sll=47.813155,-122.167969&sspn=2.593279,5.141602&ie=UTF8&latlng=47618829,-122352842,4767124963213708200&ei=vfIQSLu2F52cjQO4of3gBA&sig2=oI9VbVrmCbEcMGt5rD1vkQ&cd=136)", "gx_media_links": null }, "geometry": { "type": "Point", "coordinates": [ -122.352842, 47.618829 ] } }
]
}
