{
"type": "FeatureCollection",
"name": "Untitled layer",
"crs": { "type": "name", "properties": { "name": "urn:ogc:def:crs:OGC:1.3:CRS84" } },
"features": [
{ "type": "Feature", "properties": { "Name": "Downtown: Columbia Center", "description": "701 5th Ave<br>Seattle, WA 98104<br>(206) 447-9934<br>5am - 6pm", "gx_media_links": null }, "geometry": { "type": "Point", "coordinates": [ -122.329856, 47.604418 ] } },
{ "type": "Feature", "properties": { "Name": "Downtown: Pioneer Square", "description": "102 1st Ave S<br>Seattle, WA 98104<br>(206) 382-2656<br>5am - 6pm", "gx_media_links": null }, "geometry": { "type": "Point", "coordinates": [ -122.334196, 47.601733 ] } },
{ "type": "Feature", "properties": { "Name": "Downtown: 5th Ave", "description": "505 5th Ave S # 120<br>Seattle, WA 98104<br>(206) 381-8965<br>5am - 6pm", "gx_media_links": null }, "geometry": { "type": "Point", "coordinates": [ -122.328228, 47.597614 ] } },
{ "type": "Feature", "properties": { "Name": "Downtown: One Union Square", "description": "600 University St<br>Seattle, WA 98101<br>(206) 343-7199<br>5am - 6pm", "gx_media_links": null }, "geometry": { "type": "Point", "coordinates": [ -122.33265, 47.609157 ] } },
{ "type": "Feature", "properties": { "Name": "Downtown: Fourth & Seneca", "description": "1125 4th Ave<br>Seattle, WA 98101<br>(206) 623-0860<br>5am - 6pm", "gx_media_links": null }, "geometry": { "type": "Point", "coordinates": [ -122.333739, 47.606944 ] } },
{ "type": "Feature", "properties": { "Name": "Pike Place", "description": "1912 Pike Pl<br>Seattle, WA 98101<br>(206) 448-8762<br>7am - 6pm", "gx_media_links": null }, "geometry": { "type": "Point", "coordinates": [ -122.342298, 47.609748 ] } },
{ "type": "Feature", "properties": { "Name": "Metropolitan Park", "description": "1220 Howell St<br>Seattle, WA 98101<br>(206) 262-0278<br>7am - 6pm", "gx_media_links": null }, "geometry": { "type": "Point", "coordinates": [ -122.3304, 47.617003 ] } },
{ "type": "Feature", "properties": { "Name": "Downtown: 3rd Ave", "description": "1301 3rd Ave<br>Seattle, WA 98101<br>(206) 621-9627<br>7am - 6pm", "gx_media_links": null }, "geometry": { "type": "Point", "coordinates": [ -122.336026, 47.607752 ] } },
{ "type": "Feature", "properties": { "Name": "Downtown: Pine & 7th", "description": "721 Pine St<br>Seattle, WA 98101<br>(206) 264-8921<br>7am - 6pm", "gx_media_links": null }, "geometry": { "type": "Point", "coordinates": [ -122.334049, 47.612661 ] } },
{ "type": "Feature", "properties": { "Name": "Downtown: 2nd Ave", "description": "1191 2nd Ave # 130<br>Seattle, WA 98101<br>(206) 652-8496<br>5am - 6pm", "gx_media_links": null }, "geometry": { "type": "Point", "coordinates": [ -122.336392, 47.606488 ] } },
{ "type": "Feature", "properties": { "Name": "Downtown: Swedish Medical Center", "description": "1101 Madison St<br>Seattle, WA 98104<br>(206) 624-0281<br>5am - 6pm", "gx_media_links": null }, "geometry": { "type": "Point", "coordinates": [ -122.325076, 47.609331 ] } },
{ "type": "Feature", "properties": { "Name": "Downtown: Starbucks Coffee", "description": "211 Lenora St<br>Seattle, WA 98121<br>(206) 441-1388<br>7am - 5pm", "gx_media_links": null }, "geometry": { "type": "Point", "coordinates": [ -122.342958, 47.612582 ] } },
{ "type": "Feature", "properties": { "Name": "Downtown: Plaza 600 Building", "description": "600 Stewart St # 600<br>Seattle, WA 98101<br>(206) 441-6898<br>5am - 6pm", "gx_media_links": null }, "geometry": { "type": "Point", "coordinates": [ -122.337019, 47.613637 ] } },
{ "type": "Feature", "properties": { "Name": "Central District: 23d & Jackson", "description": "2300 S Jackson St<br>Seattle, WA 98144<br>(206) 726-0502<br>7am - 5pm", "gx_media_links": null }, "geometry": { "type": "Point", "coordinates": [ -122.302238, 47.599295 ] } },
{ "type": "Feature", "properties": { "Name": "Downtown: Puget Sound Plaza", "description": "1325 4th Ave<br>Seattle, WA 98101<br>(206) 623-5427<br>5am - 6pm", "gx_media_links": null }, "geometry": { "type": "Point", "coordinates": [ -122.335118, 47.608437 ] } },
{ "type": "Feature", "properties": { "Name": "Downtown: Madison", "description": "1301 Madison St<br>Seattle, WA 98104<br>(206) 254-1336<br>7am - 5pm", "gx_media_links": null }, "geometry": { "type": "Point", "coordinates": [ -122.322916, 47.610271 ] } },
{ "type": "Feature", "properties": { "Name": "Downtown: 4th & Occidental", "description": "400 Occidental Ave S<br>Seattle, WA 98104<br>(206) 624-2561<br>7am - 5pm", "gx_media_links": null }, "geometry": { "type": "Point", "coordinates": [ -122.332859, 47.59919 ] } },
{ "type": "Feature", "properties": { "Name": "Belltown: 23rd & 1st", "description": "2326 1st Ave<br>Seattle, WA 98121<br>(206) 956-4322<br>7am - 5pm", "gx_media_links": null }, "geometry": { "type": "Point", "coordinates": [ -122.347194, 47.613942 ] } },
{ "type": "Feature", "properties": { "Name": "Downtown: Alaskan Way", "description": "2200 Alaskan Way # 120<br>Seattle, WA 98121<br>(206) 448-9304<br>5am - 6pm", "gx_media_links": null }, "geometry": { "type": "Point", "coordinates": [ -122.347647, 47.610817 ] } },
{ "type": "Feature", "properties": { "Name": "Central District: 22nd & Madison", "description": "2201 E Madison St<br>Seattle, WA 98112<br>(206) 323-0331<br>5am - 6pm", "gx_media_links": null }, "geometry": { "type": "Point", "coordinates": [ -122.303619, 47.618388 ] } },
{ "type": "Feature", "properties": { "Name": "Mt. Baker: 29th & MLK", "description": "2921 Martin Luther King Jr S<br>Seattle, WA 98144<br>(206) 721-1543<br>5am - 6pm", "gx_media_links": null }, "geometry": { "type": "Point", "coordinates": [ -122.296324, 47.577108 ] } },
{ "type": "Feature", "properties": { "Name": "S Lake Union: 12th & Dexter", "description": "1211 Dexter Ave N<br>Seattle, WA 98109<br>(206) 283-2211<br>5am - 6pm", "gx_media_links": null }, "geometry": { "type": "Point", "coordinates": [ -122.342349, 47.629822 ] } },
{ "type": "Feature", "properties": { "Name": "Capitol Hill: 16th & Olive", "description": "1600 E Olive Way<br>Seattle, WA 98102<br>(206) 568-5185<br>7am - 5pm", "gx_media_links": null }, "geometry": { "type": "Point", "coordinates": [ -122.325007, 47.619312 ] } },
{ "type": "Feature", "properties": { "Name": "West Seattle: Alki Ave", "description": "2742 Alki Ave SW, Seattle, WA<br>(206) 381-0638<br>5am - 6pm", "gx_media_links": null }, "geometry": { "type": "Point", "coordinates": [ -122.411012, 47.578978 ] } },
{ "type": "Feature", "properties": { "Name": "Downtown: Seattle Trust", "description": "1000 2nd Ave # 101<br>Seattle, WA 98104<br>(206) 382-1688<br>7am - 6pm", "gx_media_links": null }, "geometry": { "type": "Point", "coordinates": [ -122.335097, 47.605175 ] } },
{ "type": "Feature", "properties": { "Name": "Downtown: 2nd Ave", "description": "502 2nd Ave<br>Seattle, WA 98104<br>(206) 381-0638<br>7am - 6pm", "gx_media_links": null }, "geometry": { "type": "Point", "coordinates": [ -122.332047, 47.601745 ] } },
{ "type": "Feature", "properties": { "Name": "Downtown: 5th & Pine", "description": "515 Pine St<br>Seattle, WA 98101<br>(206) 382-1201<br>5am - 6pm", "gx_media_links": null }, "geometry": { "type": "Point", "coordinates": [ -122.336338, 47.611703 ] } },
{ "type": "Feature", "properties": { "Name": "Downtown: 3rd Ave", "description": "1111 3rd Ave<br>Seattle, WA 98101<br>(206) 442-9645<br>7am - 6pm", "gx_media_links": null }, "geometry": { "type": "Point", "coordinates": [ -122.334778, 47.6064 ] } },
{ "type": "Feature", "properties": { "Name": "Rainier Valley: Rainier Plaza Shopping Center", "description": "3820 Rainier Ave S # A1<br>Seattle, WA 98118<br>(206) 723-4143<br>5am - 6pm", "gx_media_links": null }, "geometry": { "type": "Point", "coordinates": [ -122.290341, 47.569397 ] } },
{ "type": "Feature", "properties": { "Name": "Madison Park: 40th & Madison", "description": "4000 E Madison St<br>Seattle, WA 98112<br>(206) 329-3736<br>7am - 6pm", "gx_media_links": null }, "geometry": { "type": "Point", "coordinates": [ -122.28104, 47.633861 ] } },
{ "type": "Feature", "properties": { "Name": "Madrona: Lakeside Ave", "description": "121 Lakeside Ave<br>Seattle, WA 98122<br>(206) 720-4803<br>5am - 6pm", "gx_media_links": null }, "geometry": { "type": "Point", "coordinates": [ -122.285304, 47.601831 ] } },
{ "type": "Feature", "properties": { "Name": "First Hill: 12th & Columbia", "description": "800 12th Ave<br>Seattle, WA 98122<br>(206) 215-2601<br>7am - 6pm", "gx_media_links": null }, "geometry": { "type": "Point", "coordinates": [ -122.316759, 47.609211 ] } },
{ "type": "Feature", "properties": { "Name": "Downtown: 5th Ave", "description": "1420 5th Ave # 111<br>Seattle, WA 98101<br>(206) 381-3743<br>5am - 6pm", "gx_media_links": null }, "geometry": { "type": "Point", "coordinates": [ -122.334848, 47.609878 ] } },
{ "type": "Feature", "properties": { "Name": "Rainier Valley: 48th & Rainier", "description": "4824 Rainier Ave S<br>Seattle, WA 98118<br>(206) 721-8871<br>6am - 4pm", "gx_media_links": null }, "geometry": { "type": "Point", "coordinates": [ -122.285687, 47.559057 ] } },
{ "type": "Feature", "properties": { "Name": "Downtown: Pacific Place", "description": "600 Pike St<br>Seattle, WA 98101<br>(206) 264-1607<br>7am - 6pm", "gx_media_links": null }, "geometry": { "type": "Point", "coordinates": [ -122.33452, 47.611148 ] } },
{ "type": "Feature", "properties": { "Name": "Capitol Hill: Broadway", "description": "434 Broadway E<br>Seattle, WA 98102<br>(206) 323-7888<br>5am - 7:30pm", "gx_media_links": null }, "geometry": { "type": "Point", "coordinates": [ -122.320904, 47.622379 ] } },
{ "type": "Feature", "properties": { "Name": "Queen Anne: Queen Anne Ave", "description": "425 Queen Anne Ave N<br>Seattle, WA 98109<br>(206) 691-3396<br>5am - 6pm", "gx_media_links": null }, "geometry": { "type": "Point", "coordinates": [ -122.356773, 47.622405 ] } },
{ "type": "Feature", "properties": { "Name": "Downtown: 6th & Denny", "description": "620 Denny Way<br>Seattle, WA 98109<br>(206) 956-0408<br>5am - 6pm", "gx_media_links": null }, "geometry": { "type": "Point", "coordinates": [ -122.344776, 47.618557 ] } },
{ "type": "Feature", "properties": { "Name": "Int D: 1st Ave", "description": "1962 1st Ave S<br>Seattle, WA 98134<br>(206) 624-6045<br>5am - 6pm", "gx_media_links": null }, "geometry": { "type": "Point", "coordinates": [ -122.334174, 47.58567 ] } },
{ "type": "Feature", "properties": { "Name": "S Lake Union: Westlake Ave", "description": "1200 Westlake Ave N<br>Seattle, WA 98109<br>(206) 216-0306<br>7am - 6pm", "gx_media_links": null }, "geometry": { "type": "Point", "coordinates": [ -122.340986, 47.629787 ] } },
{ "type": "Feature", "properties": { "Name": "Wallingford: 45th St", "description": "2110 N 45th St<br>Seattle, WA 98103<br>(206) 548-9507<br>5am - 7pm", "gx_media_links": null }, "geometry": { "type": "Point", "coordinates": [ -122.333107, 47.661451 ] } },
{ "type": "Feature", "properties": { "Name": "Capitol Hill: 15th Ave", "description": "328 15th Ave E<br>Seattle, WA 98112<br>(206) 323-1568<br>5am - 7pm", "gx_media_links": null }, "geometry": { "type": "Point", "coordinates": [ -122.312508, 47.621341 ] } },
{ "type": "Feature", "properties": { "Name": "Downtown: 1st Ave", "description": "823 1st Ave S<br>Seattle, WA 98134<br>(206) 340-9184<br>6:30am - 2pm", "gx_media_links": null }, "geometry": { "type": "Point", "coordinates": [ -122.335516, 47.60381 ] } },
{ "type": "Feature", "properties": { "Name": "Downtown: Alaskan Way", "description": "1101 Alaskan Way # 102<br>Seattle, WA 98101<br>(206) 554-7060<br>6am - 8pm", "gx_media_links": null }, "geometry": { "type": "Point", "coordinates": [ -122.339126, 47.604478 ] } },
{ "type": "Feature", "properties": { "Name": "Univ D: 45th & University Way", "description": "4555 University Way NE<br>Seattle, WA 98105<br>(206) 634-1390<br>5am - 7pm", "gx_media_links": null }, "geometry": { "type": "Point", "coordinates": [ -122.313114, 47.66229 ] } },
{ "type": "Feature", "properties": { "Name": "Downtown: 4th & Blanchard", "description": "2101 4th Ave # 150<br>Seattle, WA 98121<br>(206) 728-0883<br>5am - 7pm", "gx_media_links": null }, "geometry": { "type": "Point", "coordinates": [ -122.341378, 47.613796 ] } },
{ "type": "Feature", "properties": { "Name": "Queen Anne: Queen Anne Ave", "description": "2135 Queen Anne Ave N<br>Seattle, WA 98109<br>(206) 301-9477<br>7am - 6pm", "gx_media_links": null }, "geometry": { "type": "Point", "coordinates": [ -122.356959, 47.637596 ] } },
{ "type": "Feature", "properties": { "Name": "Downtown: 3rd Ave", "description": "999 3rd Ave<br>Seattle, WA 98104<br>(206) 748-0058<br>5am - 7pm", "gx_media_links": null }, "geometry": { "type": "Point", "coordinates": [ -122.33402, 47.605595 ] } },
{ "type": "Feature", "properties": { "Name": "Ravenna: 64th & 12th", "description": "6417 12th Ave NE<br>Seattle, WA 98115<br>(206) 526-7230<br>7am - 6pm", "gx_media_links": null }, "geometry": { "type": "Point", "coordinates": [ -122.315683, 47.675117 ] } },
{ "type": "Feature", "properties": { "Name": "Queen Anne: Elliott Ave", "description": "1144 Elliott Ave W<br>Seattle, WA 98119<br>(206) 283-9629<br>7am - 6pm", "gx_media_links": null }, "geometry": { "type": "Point", "coordinates": [ -122.372145, 47.629479 ] } },
{ "type": "Feature", "properties": { "Name": "West Seattle: 41st & Admiral", "description": "4101 SW Admiral Way<br>Seattle, WA 98116<br>(206) 937-5010<br>7am - 5pm", "gx_media_links": null }, "geometry": { "type": "Point", "coordinates": [ -122.383912, 47.581174 ] } },
{ "type": "Feature", "properties": { "Name": "Downtown: 7th Ave", "description": "1700 7th Ave<br>Seattle, WA 98101<br>(206) 382-0636<br>7am - 5pm", "gx_media_links": null }, "geometry": { "type": "Point", "coordinates": [ -122.335168, 47.613592 ] } },
{ "type": "Feature", "properties": { "Name": "Phinney Ridge: 67th St", "description": "316 N 67th St<br>Seattle, WA 98103<br>(206) 781-4153<br>6am - 8pm", "gx_media_links": null }, "geometry": { "type": "Point", "coordinates": [ -122.355032, 47.677839 ] } },
{ "type": "Feature", "properties": { "Name": "Northgate: Northgate Way", "description": "2137 N Northgate Way<br>Seattle, WA 98133<br>(206) 417-1403<br>6am - 8pm", "gx_media_links": null }, "geometry": { "type": "Point", "coordinates": [ -122.333012, 47.708654 ] } },
{ "type": "Feature", "properties": { "Name": "Downtown: Seattle Center Kiosk", "description": "305 Harrison St<br>Seattle, WA 98109<br>(206) 728-4077<br>5am - 7pm", "gx_media_links": null }, "geometry": { "type": "Point", "coordinates": [ -122.348438, 47.621985 ] } },
{ "type": "Feature", "properties": { "Name": "Queen Anne: Dravus St", "description": "1607 W Dravus St<br>Seattle, WA 98119<br>(206) 285-6230<br>5am - 7pm", "gx_media_links": null }, "geometry": { "type": "Point", "coordinates": [ -122.377598, 47.648454 ] } },
{ "type": "Feature", "properties": { "Name": "Downtown: Terry Ave", "description": "442 Terry Ave N<br>Seattle, WA 98121<br>(206) 223-2173<br>7am - 5pm", "gx_media_links": null }, "geometry": { "type": "Point", "coordinates": [ -122.336405, 47.617958 ] } },
{ "type": "Feature", "properties": { "Name": "Magnolia: McGraw St", "description": "3300 W McGraw St<br>Seattle, WA 98199<br>(206) 298-3390<br>5am - 7pm", "gx_media_links": null }, "geometry": { "type": "Point", "coordinates": [ -122.399674, 47.639583 ] } },
{ "type": "Feature", "properties": { "Name": "Univ D: U Village", "description": "2650 NE 49th St<br>Seattle, WA 98105<br>(206) 522-6410<br>5am - 7pm", "gx_media_links": null }, "geometry": { "type": "Point", "coordinates": [ -122.299687, 47.662663 ] } },
{ "type": "Feature", "properties": { "Name": "West Seattle: Fauntleroy", "description": "4408 Fauntleroy Way SW<br>Seattle, WA<br>(206) 728-4077<br>5am - 6pm", "gx_media_links": null }, "geometry": { "type": "Point", "coordinates": [ -122.377787, 47.563977 ] } },
{ "type": "Feature", "properties": { "Name": "Univ D: 41st & University Way", "description": "4147 University Way NE<br>Seattle, WA 98105<br>(206) 547-3280<br>7am - 5pm", "gx_media_links": null}, "geometry": { "type": "Point", "coordinates": [ -122.313312, 47.658226 ] } },
{ "type": "Feature", "properties": { "Name": "Ballard: 22nd & Market", "description": "2204 NW Market St<br>Seattle, WA 98107<br>(206) 782-2795<br>5am - 6pm", "gx_media_links": null }, "geometry": { "type": "Point", "coordinates": [ -122.384824, 47.668705 ] } },
{ "type": "Feature", "properties": { "Name": "Green Lake: 71st & Green Lake", "description": "7100 E Green Lake Dr N<br>Seattle, WA 98115<br>(206) 523-9594<br>5:30am - 6 pm", "gx_media_links": null }, "geometry": { "type": "Point", "coordinates": [ -122.325668, 47.679741 ] } },
{ "type": "Feature", "properties": { "Name": "West Seattle: California & Fauntleroy", "description": "6501 California Ave SW<br>Seattle, WA 98136<br>(206) 938-6371<br>7am - 5pm", "gx_media_links": null }, "geometry": { "type": "Point", "coordinates": [ -122.387347, 47.544688 ] } },
{ "type": "Feature", "properties": { "Name": "Crown Hill: Holman Rd", "description": "9999 Holman Rd NW<br>Seattle, WA 98117<br>(206) 783-8104<br>5:30am - 6 pm", "gx_media_links": null }, "geometry": { "type": "Point", "coordinates": [ -122.362198, 47.70171 ] } },
{ "type": "Feature", "properties": { "Name": "Eastlake: 23rd & Eastlake", "description": "2344 Eastlake Ave E<br>Seattle, WA 98102<br>(206) 324-5144<br>7am - 5pm", "gx_media_links": null }, "geometry": { "type": "Point", "coordinates": [ -122.325871, 47.64076 ] } },
{ "type": "Feature", "properties": { "Name": "Montlake: 38th & Montlake Blvd", "description": "3850 Montlake Blvd NE # 315<br>Seattle, WA 98195<br>(206) 362-3704<br>5:30am - 6 pm", "gx_media_links": null }, "geometry": { "type": "Point", "coordinates": [ -122.303442, 47.65182 ] } },
{ "type": "Feature", "properties": { "Name": "Fremont: 34th & Fremont", "description": "3415 Fremont Ave N # B<br>Seattle, WA 98103<br>(206) 633-3706<br>6am - 6 pm", "gx_media_links": null }, "geometry": { "type": "Point", "coordinates": [ -122.349819, 47.649703 ] } },
{ "type": "Feature", "properties": { "Name": "Downtown: 6th & Union", "description": "601 Union St # 224B<br>Seattle, WA 98101<br>(206) 264-2534<br>6am - 8pm", "gx_media_links": null }, "geometry": { "type": "Point", "coordinates": [ -122.333576, 47.610121 ] } },
{ "type": "Feature", "properties": { "Name": "West Seattle: 26th & California Ave SW", "description": "2622 California Ave SW<br>Seattle, WA 98116<br>(206) 937-5112<br>7am - 5pm", "gx_media_links": null }, "geometry": { "type": "Point", "coordinates": [ -122.386553, 47.580756 ] } },
{ "type": "Feature", "properties": { "Name": "Wedgewood: 73rd & 35th", "description": "7303 35th Ave NE<br>Seattle, WA 98115<br>(206) 517-2877<br>7am - 5pm", "gx_media_links": null }, "geometry": { "type": "Point", "coordinates": [ -122.370751, 47.660342 ] } },
{ "type": "Feature", "properties": { "Name": "Rainier Valley", "description": "9162 Rainier Ave S<br>Seattle, WA 98118<br>(206) 494-1120<br>7am - 5pm", "gx_media_links": null }, "geometry": { "type": "Point", "coordinates": [ -122.269973, 47.520933 ] } },
{ "type": "Feature", "properties": { "Name": "QFC Starbucks", "description": "9023 25th Ave SW<br>Seattle, WA 98106<br>(206) 937-1732<br>7am - 5pm", "gx_media_links": null }, "geometry": { "type": "Point", "coordinates": [ -122.364591, 47.522446 ] } },
{ "type": "Feature", "properties": { "Name": "Lake City: 120th & Lake City Way", "description": "12001 Lake City Way NE<br>Seattle, WA 98125<br>(206) 364-2490<br>6am - 6 pm", "gx_media_links": null }, "geometry": { "type": "Point", "coordinates": [ -122.297369, 47.715637 ] } },
{ "type": "Feature", "properties": { "Name": "Northgate: Northgate Mall", "description": "301 NE Northgate Way # 550<br>Seattle, WA 98125<br>(206) 306-8525<br>5am - 4:30pm", "gx_media_links": null }, "geometry": { "type": "Point", "coordinates": [ -122.325957, 47.708584 ] } },
{ "type": "Feature", "properties": { "Name": "Northgate: Northgate Way", "description": "540 NE Northgate Way # A<br>Seattle, WA 98125<br>(206) 367-6651<br>5am - 4:30pm", "gx_media_links": null }, "geometry": { "type": "Point", "coordinates": [ -122.322133, 47.708605 ] } },
{ "type": "Feature", "properties": { "Name": "Downtown: King St", "description": "83 S King St<br>Seattle, WA 98104<br>(206) 342-6400<br>5am - 6pm", "gx_media_links": null }, "geometry": { "type": "Point", "coordinates": [ -122.334435, 47.598288 ] } },
{ "type": "Feature", "properties": { "Name": "Capitol Hill: 14th & Broadway", "description": "1401 Broadway<br>Seattle, WA 98122<br>(206) 860-3818<br>7am - 5pm", "gx_media_links": null }, "geometry": { "type": "Point", "coordinates": [ -122.320823, 47.61299 ] } },
{ "type": "Feature", "properties": { "Name": "Ballard: NW Market St", "description": "1423 NW Market St<br>Seattle, WA 98107<br>(206) 784-6480<br>5am - 6pm", "gx_media_links": null }, "geometry": { "type": "Point", "coordinates": [ -122.374269, 47.668648 ] } },
{ "type": "Feature", "properties": { "Name": "Central District: James Tower", "description": "550 17th Ave # 190<br>Seattle, WA 98122<br>(206) 325-6750<br>7am - 5pm", "gx_media_links": null }, "geometry": { "type": "Point", "coordinates": [ -122.310214, 47.606527 ] } },
{ "type": "Feature", "properties": { "Name": "Capitol Hill: 14th & John", "description": "1410 E John St<br>Seattle, WA 98112<br>(206) 323-4988<br>7am - 5pm", "gx_media_links": null }, "geometry": { "type": "Point", "coordinates": [ -122.313805, 47.619955 ] } },
{ "type": "Feature", "properties": { "Name": "Haller Lake: 130th & Aurora", "description": "13035 Aurora Ave N<br>Seattle, WA 98133<br>(206) 368-9366<br>5:30am - 6 pm", "gx_media_links": null }, "geometry": { "type": "Point", "coordinates": [ -122.345047, 47.723473 ] } },
{ "type": "Feature", "properties": { "Name": "Crown Hill: 15th Ave NW", "description": "8340 15th Ave NW<br>Seattle, WA 98117<br>(206) 782-7464<br>7am - 5pm", "gx_media_links": null }, "geometry": { "type": "Point", "coordinates": [ -122.376758, 47.689497 ] } },
{ "type": "Feature", "properties": { "Name": "Queen Anne: 1st Ave W", "description": "516 1st Ave W<br>Seattle, WA 98119<br>(206) 494-1685<br>7am - 5pm", "gx_media_links": null }, "geometry": { "type": "Point", "coordinates": [ -122.358017, 47.623512 ] } },
{ "type": "Feature", "properties": { "Name": "Mt. Baker: 27th & Rainier", "description": "2707 Rainier Ave S<br>Seattle, WA 98144<br>(206) 725-2418<br>5am - 6pm", "gx_media_links": null }, "geometry": { "type": "Point", "coordinates": [ -122.29882, 47.579161 ] } },
{ "type": "Feature", "properties": { "Name": "145th & 15th", "description": "14359 15th Ave NE<br>Seattle, WA 98125<br>(206) 366-2707<br>5:30am - 4:30pm", "gx_media_links": null }, "geometry": { "type": "Point", "coordinates": [ -122.312769, 47.733198 ] } },
{ "type": "Feature", "properties": { "Name": "Fremont: NW 45th St", "description": "915 NW 45th St<br>Seattle, WA 98107<br>(206) 789-9322<br>6am - 7pm", "gx_media_links": null }, "geometry": { "type": "Point", "coordinates": [ -122.368917, 47.661467 ] } },
{ "type": "Feature", "properties": { "Name": "Harbor Island: SW Klickitat", "description": "1021 SW Klickitat Way<br>Seattle, WA 98134<br>(206) 903-6929<br>5am - 6pm", "gx_media_links": null }, "geometry": { "type": "Point", "coordinates": [ -122.347669, 47.570571 ] } },
{ "type": "Feature", "properties": { "Name": "Arbor Heights: 28th Ave SW", "description": "9620 28th Ave SW<br>Seattle, WA 98126<br>(206) 935-3996<br>5am - 6pm", "gx_media_links": null }, "geometry": { "type": "Point", "coordinates": [ -122.368603, 47.517261 ] } },
{ "type": "Feature", "properties": { "Name": "West Seattle: 42nd Ave SW", "description": "4704 42nd Ave SW<br>Seattle, WA 98116<br>(206) 938-6097<br>5:30am - 6 pm", "gx_media_links": null }, "geometry": { "type": "Point", "coordinates": [ -122.385461, 47.560982 ] } },
{ "type": "Feature", "properties": { "Name": "Wallingford: 12th & 45th", "description": "1218 N 45th St<br>Seattle, WA 98103<br>(206) 545-6945<br>6am - 7pm", "gx_media_links": null }, "geometry": { "type": "Point", "coordinates": [ -122.343206, 47.661468 ] } },
{ "type": "Feature", "properties": { "Name": "Lake City: 143rd & Lake City Way", "description": "14330 Lake City Way NE<br>Seattle, WA 98125<br>(206) 440-3366<br>5am - 7pm", "gx_media_links": null }, "geometry": { "type": "Point", "coordinates": [ -122.292402, 47.732502 ] } },
{ "type": "Feature", "properties": { "Name": "QFC Starbucks", "description": "2500 SW Barton<br>Seattle, WA 98126<br>(206) 935-0585<br>5am - 7pm", "gx_media_links": null }, "geometry": { "type": "Point", "coordinates": [ -122.364553, 47.521045 ] } },
{ "type": "Feature", "properties": { "Name": "Barton Starbucks", "description": "2600 SW Barton St<br>Seattle, WA 98126<br>(206) 935-0585<br>5am - 7pm", "gx_media_links": null }, "geometry": { "type": "Point", "coordinates": [ -122.365902, 47.521055 ] } },
{ "type": "Feature", "properties": { "Name": "Greenwood: 87th & Greenwood", "description": "8704 Greenwood Ave N<br>Seattle, WA 98103<br>(206) 494-0433<br>6am - 7pm", "gx_media_links": null }, "geometry": { "type": "Point", "coordinates": [ -122.355288, 47.692529 ] } },
{ "type": "Feature", "properties": { "Name": "QFC Starbucks", "description": "11100 Roosevelt Way NE<br>Seattle, WA 98125<br>(206) 361-4849<br>5am - 6pm", "gx_media_links": null }, "geometry": { "type": "Point", "coordinates": [ -122.317827, 47.70937 ] } },
{ "type": "Feature", "properties": { "Name": "Univ D: University Village", "description": "4634 26th Ave NE<br>Seattle, WA 98105<br>(206) 522-5228<br>5am - 6pm", "gx_media_links": null }, "geometry": { "type": "Point", "coordinates": [ -122.29955, 47.669245 ] } },
{ "type": "Feature", "properties": { "Name": "Int Dist: 24th & Utah", "description": "2401 Utah Ave S<br>Seattle, WA 98134<br>(206) 447-1575<br>5am - 6pm", "gx_media_links": null }, "geometry": { "type": "Point", "coordinates": [ -122.335134, 47.581893 ] } },
{ "type": "Feature", "properties": { "Name": "Downtown: 5th St", "description": "701 5th St<br>Seattle, WA 98104<br>(206) 264-015<br>7am - 5pm", "gx_media_links": null }, "geometry": { "type": "Point", "coordinates": [ -122.329856, 47.604418 ] } },
{ "type": "Feature", "properties": { "Name": "Downtown: Us Bank Centre Store", "description": "1420 5th Ave<br>Seattle, WA 98101<br>(206) 467-0972<br>6am - 7pm", "gx_media_links": null }, "geometry": { "type": "Point", "coordinates": [ -122.334848, 47.609878 ] } },
{ "type": "Feature", "properties": { "Name": "Downtown: 1st & Marion", "description": "114 Alaskan Way South<br>Seattle, WA 98101<br>(888) 888-2301<br>7am - 5pm", "gx_media_links": null }, "geometry": { "type": "Point", "coordinates": [ -122.336046, 47.601586 ] } },
{ "type": "Feature", "properties": { "Name": "Queen Anne: Seattle Trust", "description": "1000 2nd Avenue 120 N<br>Seattle, WA 98101<br>(206) 382-1688<br>6am - 7pm", "gx_media_links": null }, "geometry": { "type": "Point", "coordinates": [ -122.352842, 47.618829 ] } }
]
}
